[
  {
    "name": "Jones Crossroads",
    "country": "US",
    "coord": {
      "lon": -85.484657,
      "lat": 31.21073
    }
  },
  {
    "name": "Vernon Parish",
    "country": "US",
    "coord": {
      "lon": -93.183502,
      "lat": 31.11685
    }
  },
  {
    "name": "Pennick",
    "country": "US",
    "coord": {
      "lon": -81.55899,
      "lat": 31.313
    }
  },
  {
    "name": "Black Bear Spring",
    "country": "US",
    "coord": {
      "lon": -110.288139,
      "lat": 31.386209
    }
  },
  {
    "name": "Bee House",
    "country": "US",
    "coord": {
      "lon": -98.081139,
      "lat": 31.40266
    }
  },
  {
    "name": "Provo",
    "country": "US",
    "coord": {
      "lon": -94.107697,
      "lat": 34.037609
    }
  },
  {
    "name": "Tejon",
    "country": "US",
    "coord": {
      "lon": -105.28611,
      "lat": 34.58979
    }
  },
  {
    "name": "Washington",
    "country": "US",
    "coord": {
      "lon": -120.501472,
      "lat": 47.500118
    }
  },
  {
    "name": "San Dimas",
    "country": "US",
    "coord": {
      "lon": -117.806732,
      "lat": 34.106682
    }
  },
  {
    "name": "Coffee County",
    "country": "US",
    "coord": {
      "lon": -86.000221,
      "lat": 31.41683
    }
  },
  {
    "name": "Clay County",
    "country": "US",
    "coord": {
      "lon": -81.833153,
      "lat": 29.99968
    }
  },
  {
    "name": "Flagler County",
    "country": "US",
    "coord": {
      "lon": -81.291451,
      "lat": 29.45859
    }
  },
  {
    "name": "Hernando County",
    "country": "US",
    "coord": {
      "lon": -82.458153,
      "lat": 28.541941
    }
  },
  {
    "name": "Sumter County",
    "country": "US",
    "coord": {
      "lon": -82.083138,
      "lat": 28.708599
    }
  },
  {
    "name": "Fulton County",
    "country": "US",
    "coord": {
      "lon": -84.449928,
      "lat": 33.766769
    }
  },
  {
    "name": "DeKalb County",
    "country": "US",
    "coord": {
      "lon": -84.233253,
      "lat": 33.750381
    }
  },
  {
    "name": "Clark County",
    "country": "US",
    "coord": {
      "lon": -85.761353,
      "lat": 38.483398
    }
  },
  {
    "name": "Sylvania",
    "country": "US",
    "coord": {
      "lon": -85.87413,
      "lat": 38.157009
    }
  },
  {
    "name": "Clark County",
    "country": "US",
    "coord": {
      "lon": -84.266602,
      "lat": 37.98341
    }
  },
  {
    "name": "City of Baltimore",
    "country": "US",
    "coord": {
      "lon": -76.61219,
      "lat": 39.290379
    }
  },
  {
    "name": "Cashell Estates",
    "country": "US",
    "coord": {
      "lon": -77.138702,
      "lat": 39.137199
    }
  },
  {
    "name": "Wakely Terrace",
    "country": "US",
    "coord": {
      "lon": -76.334961,
      "lat": 39.525661
    }
  },
  {
    "name": "Saint Charles County",
    "country": "US",
    "coord": {
      "lon": -90.733459,
      "lat": 38.76672
    }
  },
  {
    "name": "City of Saint Louis",
    "country": "US",
    "coord": {
      "lon": -90.197891,
      "lat": 38.62727
    }
  },
  {
    "name": "Coahoma County",
    "country": "US",
    "coord": {
      "lon": -90.567879,
      "lat": 34.217892
    }
  },
  {
    "name": "Jackson County",
    "country": "US",
    "coord": {
      "lon": -88.6278,
      "lat": 30.42325
    }
  },
  {
    "name": "Nash County",
    "country": "US",
    "coord": {
      "lon": -77.96637,
      "lat": 35.96682
    }
  },
  {
    "name": "Lee County",
    "country": "US",
    "coord": {
      "lon": -79.183083,
      "lat": 35.46682
    }
  },
  {
    "name": "Warren County",
    "country": "US",
    "coord": {
      "lon": -84.166603,
      "lat": 39.433392
    }
  },
  {
    "name": "Creek County",
    "country": "US",
    "coord": {
      "lon": -96.400291,
      "lat": 35.900082
    }
  },
  {
    "name": "Richland County",
    "country": "US",
    "coord": {
      "lon": -80.916481,
      "lat": 34.016819
    }
  },
  {
    "name": "Taylor County",
    "country": "US",
    "coord": {
      "lon": -99.833702,
      "lat": 32.300129
    }
  },
  {
    "name": "Hidalgo County",
    "country": "US",
    "coord": {
      "lon": -98.200287,
      "lat": 26.333679
    }
  },
  {
    "name": "Washington County",
    "country": "US",
    "coord": {
      "lon": -96.400238,
      "lat": 30.233549
    }
  },
  {
    "name": "Walker County",
    "country": "US",
    "coord": {
      "lon": -95.566887,
      "lat": 30.73353
    }
  },
  {
    "name": "Kerr County",
    "country": "US",
    "coord": {
      "lon": -99.300323,
      "lat": 30.050211
    }
  },
  {
    "name": "City of Alexandria",
    "country": "US",
    "coord": {
      "lon": -77.046921,
      "lat": 38.80484
    }
  },
  {
    "name": "City of Bristol",
    "country": "US",
    "coord": {
      "lon": -82.188469,
      "lat": 36.596489
    }
  },
  {
    "name": "City of Charlottesville",
    "country": "US",
    "coord": {
      "lon": -78.476677,
      "lat": 38.029308
    }
  },
  {
    "name": "City of Chesapeake",
    "country": "US",
    "coord": {
      "lon": -76.312157,
      "lat": 36.687649
    }
  },
  {
    "name": "City of Colonial Heights",
    "country": "US",
    "coord": {
      "lon": -77.410263,
      "lat": 37.244041
    }
  },
  {
    "name": "City of Danville",
    "country": "US",
    "coord": {
      "lon": -79.39502,
      "lat": 36.585972
    }
  },
  {
    "name": "City of Fairfax",
    "country": "US",
    "coord": {
      "lon": -77.306374,
      "lat": 38.846218
    }
  },
  {
    "name": "City of Fredericksburg",
    "country": "US",
    "coord": {
      "lon": -77.460541,
      "lat": 38.303181
    }
  },
  {
    "name": "City of Harrisonburg",
    "country": "US",
    "coord": {
      "lon": -78.868919,
      "lat": 38.44957
    }
  },
  {
    "name": "City of Hopewell",
    "country": "US",
    "coord": {
      "lon": -77.287201,
      "lat": 37.304321
    }
  },
  {
    "name": "City of Lynchburg",
    "country": "US",
    "coord": {
      "lon": -79.14225,
      "lat": 37.41375
    }
  },
  {
    "name": "City of Manassas",
    "country": "US",
    "coord": {
      "lon": -77.475273,
      "lat": 38.75095
    }
  },
  {
    "name": "City of Newport News",
    "country": "US",
    "coord": {
      "lon": -76.508011,
      "lat": 37.062649
    }
  },
  {
    "name": "City of Norfolk",
    "country": "US",
    "coord": {
      "lon": -76.261879,
      "lat": 36.891258
    }
  },
  {
    "name": "City of Petersburg",
    "country": "US",
    "coord": {
      "lon": -77.401932,
      "lat": 37.227928
    }
  },
  {
    "name": "City of Portsmouth",
    "country": "US",
    "coord": {
      "lon": -76.354668,
      "lat": 36.85487
    }
  },
  {
    "name": "City of Radford",
    "country": "US",
    "coord": {
      "lon": -80.576447,
      "lat": 37.13179
    }
  },
  {
    "name": "City of Richmond",
    "country": "US",
    "coord": {
      "lon": -77.460258,
      "lat": 37.553761
    }
  },
  {
    "name": "City of Roanoke",
    "country": "US",
    "coord": {
      "lon": -79.941429,
      "lat": 37.270969
    }
  },
  {
    "name": "City of Salem",
    "country": "US",
    "coord": {
      "lon": -80.054764,
      "lat": 37.293468
    }
  },
  {
    "name": "City of Suffolk",
    "country": "US",
    "coord": {
      "lon": -76.608009,
      "lat": 36.708481
    }
  },
  {
    "name": "City of Staunton",
    "country": "US",
    "coord": {
      "lon": -79.071701,
      "lat": 38.149578
    }
  },
  {
    "name": "City of Waynesboro",
    "country": "US",
    "coord": {
      "lon": -78.889473,
      "lat": 38.06847
    }
  },
  {
    "name": "City of Winchester",
    "country": "US",
    "coord": {
      "lon": -78.16333,
      "lat": 39.185661
    }
  },
  {
    "name": "Cuyahoga County",
    "country": "US",
    "coord": {
      "lon": -81.666519,
      "lat": 41.433392
    }
  },
  {
    "name": "Lee County",
    "country": "US",
    "coord": {
      "lon": -89.283432,
      "lat": 41.750591
    }
  },
  {
    "name": "Knox County",
    "country": "US",
    "coord": {
      "lon": -90.200119,
      "lat": 40.933369
    }
  },
  {
    "name": "Ottawa County",
    "country": "US",
    "coord": {
      "lon": -86.000603,
      "lat": 42.95002
    }
  },
  {
    "name": "Bay County",
    "country": "US",
    "coord": {
      "lon": -84.016647,
      "lat": 43.73336
    }
  },
  {
    "name": "Macomb County",
    "country": "US",
    "coord": {
      "lon": -82.949928,
      "lat": 42.700031
    }
  },
  {
    "name": "Ingham County",
    "country": "US",
    "coord": {
      "lon": -84.383301,
      "lat": 42.60004
    }
  },
  {
    "name": "Shiawassee County",
    "country": "US",
    "coord": {
      "lon": -84.149971,
      "lat": 42.950031
    }
  },
  {
    "name": "Nassau County",
    "country": "US",
    "coord": {
      "lon": -73.582901,
      "lat": 40.75066
    }
  },
  {
    "name": "Kings County",
    "country": "US",
    "coord": {
      "lon": -73.949577,
      "lat": 40.650101
    }
  },
  {
    "name": "Cortland County",
    "country": "US",
    "coord": {
      "lon": -76.082977,
      "lat": 42.600071
    }
  },
  {
    "name": "City Line",
    "country": "US",
    "coord": {
      "lon": -73.887077,
      "lat": 40.676208
    }
  },
  {
    "name": "Fulton County",
    "country": "US",
    "coord": {
      "lon": -74.449577,
      "lat": 43.116741
    }
  },
  {
    "name": "Jamestown",
    "country": "US",
    "coord": {
      "lon": -79.235329,
      "lat": 42.097
    }
  },
  {
    "name": "Queensbridge Houses",
    "country": "US",
    "coord": {
      "lon": -73.945,
      "lat": 40.75528
    }
  },
  {
    "name": "Carnegie Hill",
    "country": "US",
    "coord": {
      "lon": -73.95472,
      "lat": 40.783329
    }
  },
  {
    "name": "Rensselaer County",
    "country": "US",
    "coord": {
      "lon": -73.482887,
      "lat": 42.716751
    }
  },
  {
    "name": "Mahoning County",
    "country": "US",
    "coord": {
      "lon": -80.766472,
      "lat": 41.03339
    }
  },
  {
    "name": "Delaware County",
    "country": "US",
    "coord": {
      "lon": -83.000183,
      "lat": 40.266731
    }
  },
  {
    "name": "Allen County",
    "country": "US",
    "coord": {
      "lon": -84.083282,
      "lat": 40.76672
    }
  },
  {
    "name": "Erie County",
    "country": "US",
    "coord": {
      "lon": -82.599899,
      "lat": 41.350052
    }
  },
  {
    "name": "Bristol County",
    "country": "US",
    "coord": {
      "lon": -71.271721,
      "lat": 41.71677
    }
  },
  {
    "name": "Santa Cruz County",
    "country": "US",
    "coord": {
      "lon": -122.051071,
      "lat": 37.066608
    }
  },
  {
    "name": "San Francisco County",
    "country": "US",
    "coord": {
      "lon": -122.45108,
      "lat": 37.766602
    }
  },
  {
    "name": "Grand Junction",
    "country": "US",
    "coord": {
      "lon": -108.550652,
      "lat": 39.063869
    }
  },
  {
    "name": "Maverick County",
    "country": "US",
    "coord": {
      "lon": -100.350349,
      "lat": 28.76692
    }
  },
  {
    "name": "Gray County",
    "country": "US",
    "coord": {
      "lon": -100.802002,
      "lat": 35.416698
    }
  },
  {
    "name": "New York",
    "country": "US",
    "coord": {
      "lon": -75.499901,
      "lat": 43.000351
    }
  },
  {
    "name": "City of Cape Canaveral",
    "country": "US",
    "coord": {
      "lon": -80.60567,
      "lat": 28.39367
    }
  },
  {
    "name": "Broomfield County",
    "country": "US",
    "coord": {
      "lon": -105.086647,
      "lat": 39.92054
    }
  },
  {
    "name": "Denver County",
    "country": "US",
    "coord": {
      "lon": -104.950539,
      "lat": 39.666649
    }
  },
  {
    "name": "Durango",
    "country": "US",
    "coord": {
      "lon": -107.880074,
      "lat": 37.27528
    }
  },
  {
    "name": "Montrose County",
    "country": "US",
    "coord": {
      "lon": -108.267303,
      "lat": 38.416649
    }
  },
  {
    "name": "Liberal",
    "country": "US",
    "coord": {
      "lon": -100.920998,
      "lat": 37.043079
    }
  },
  {
    "name": "McKinley County",
    "country": "US",
    "coord": {
      "lon": -109.033981,
      "lat": 35.900009
    }
  },
  {
    "name": "Lyon County",
    "country": "US",
    "coord": {
      "lon": -119.126259,
      "lat": 39.000198
    }
  },
  {
    "name": "Mesquite",
    "country": "US",
    "coord": {
      "lon": -114.067192,
      "lat": 36.805531
    }
  },
  {
    "name": "Ector County",
    "country": "US",
    "coord": {
      "lon": -102.55043,
      "lat": 31.866791
    }
  },
  {
    "name": "Spring Circle",
    "country": "US",
    "coord": {
      "lon": -111.854927,
      "lat": 40.57217
    }
  },
  {
    "name": "Wheadon Acres",
    "country": "US",
    "coord": {
      "lon": -111.96299,
      "lat": 40.560501
    }
  },
  {
    "name": "Clark County",
    "country": "US",
    "coord": {
      "lon": -122.484543,
      "lat": 45.799839
    }
  },
  {
    "name": "Casper",
    "country": "US",
    "coord": {
      "lon": -106.31308,
      "lat": 42.866631
    }
  },
  {
    "name": "Islandia",
    "country": "US",
    "coord": {
      "lon": -80.252548,
      "lat": 25.37817
    }
  },
  {
    "name": "Texas",
    "country": "US",
    "coord": {
      "lon": -99.25061,
      "lat": 31.250441
    }
  },
  {
    "name": "Brooks County",
    "country": "US",
    "coord": {
      "lon": -98.23362,
      "lat": 27.033661
    }
  },
  {
    "name": "Noria Willie",
    "country": "US",
    "coord": {
      "lon": -98.127228,
      "lat": 27.0856
    }
  },
  {
    "name": "Highlands County",
    "country": "US",
    "coord": {
      "lon": -81.349792,
      "lat": 27.366989
    }
  },
  {
    "name": "Wild Island",
    "country": "US",
    "coord": {
      "lon": -81.203682,
      "lat": 27.37282
    }
  },
  {
    "name": "Hillsborough County",
    "country": "US",
    "coord": {
      "lon": -82.349808,
      "lat": 27.916969
    }
  },
  {
    "name": "Lindsey",
    "country": "US",
    "coord": {
      "lon": -82.211403,
      "lat": 28.005199
    }
  },
  {
    "name": "Refugio County",
    "country": "US",
    "coord": {
      "lon": -97.166939,
      "lat": 28.33362
    }
  },
  {
    "name": "Cranell",
    "country": "US",
    "coord": {
      "lon": -97.392769,
      "lat": 28.16807
    }
  },
  {
    "name": "Calhoun County",
    "country": "US",
    "coord": {
      "lon": -96.61692,
      "lat": 28.466949
    }
  },
  {
    "name": "Louisiana",
    "country": "US",
    "coord": {
      "lon": -92.000397,
      "lat": 31.000469
    }
  },
  {
    "name": "Plaquemines Parish",
    "country": "US",
    "coord": {
      "lon": -89.700058,
      "lat": 29.45022
    }
  },
  {
    "name": "Burrwood (historical)",
    "country": "US",
    "coord": {
      "lon": -89.377548,
      "lat": 28.96829
    }
  },
  {
    "name": "Slagle",
    "country": "US",
    "coord": {
      "lon": -93.12738,
      "lat": 31.20241
    }
  },
  {
    "name": "Conecuh County",
    "country": "US",
    "coord": {
      "lon": -86.983307,
      "lat": 31.466829
    }
  },
  {
    "name": "Castleberry",
    "country": "US",
    "coord": {
      "lon": -87.022469,
      "lat": 31.299061
    }
  },
  {
    "name": "Crenshaw County",
    "country": "US",
    "coord": {
      "lon": -86.316628,
      "lat": 31.73349
    }
  },
  {
    "name": "Dozier",
    "country": "US",
    "coord": {
      "lon": -86.36496,
      "lat": 31.492109
    }
  },
  {
    "name": "Hamilton County",
    "country": "US",
    "coord": {
      "lon": -98.083641,
      "lat": 31.71682
    }
  },
  {
    "name": "Parsley Crossing",
    "country": "US",
    "coord": {
      "lon": -98.112259,
      "lat": 31.567659
    }
  },
  {
    "name": "Pima County",
    "country": "US",
    "coord": {
      "lon": -112.003464,
      "lat": 32.000351
    }
  },
  {
    "name": "Valencia West",
    "country": "US",
    "coord": {
      "lon": -111.114143,
      "lat": 32.132381
    }
  },
  {
    "name": "Vanar",
    "country": "US",
    "coord": {
      "lon": -109.095062,
      "lat": 32.241192
    }
  },
  {
    "name": "Bedford",
    "country": "US",
    "coord": {
      "lon": -91.015106,
      "lat": 32.240978
    }
  },
  {
    "name": "Alvarado",
    "country": "US",
    "coord": {
      "lon": -106.237213,
      "lat": 32.13649
    }
  },
  {
    "name": "Shavers (historical)",
    "country": "US",
    "coord": {
      "lon": -88.530037,
      "lat": 33.25568
    }
  },
  {
    "name": "Lakeview",
    "country": "US",
    "coord": {
      "lon": -102.050453,
      "lat": 33.326481
    }
  },
  {
    "name": "Apollo (historical)",
    "country": "US",
    "coord": {
      "lon": -83.527672,
      "lat": 33.36541
    }
  },
  {
    "name": "Grayson County",
    "country": "US",
    "coord": {
      "lon": -96.683601,
      "lat": 33.616772
    }
  },
  {
    "name": "Los Angeles County",
    "country": "US",
    "coord": {
      "lon": -118.200912,
      "lat": 34.366661
    }
  },
  {
    "name": "Chattooga County",
    "country": "US",
    "coord": {
      "lon": -85.33329,
      "lat": 34.466751
    }
  },
  {
    "name": "Sprite",
    "country": "US",
    "coord": {
      "lon": -85.39579,
      "lat": 34.288429
    }
  },
  {
    "name": "Newberry County",
    "country": "US",
    "coord": {
      "lon": -81.616501,
      "lat": 34.30014
    }
  },
  {
    "name": "Mount Bethel (historical)",
    "country": "US",
    "coord": {
      "lon": -81.562332,
      "lat": 34.3382
    }
  },
  {
    "name": "Kershaw County",
    "country": "US",
    "coord": {
      "lon": -80.56646,
      "lat": 34.45015
    }
  },
  {
    "name": "Nelson",
    "country": "US",
    "coord": {
      "lon": -113.320213,
      "lat": 35.51416
    }
  },
  {
    "name": "Schoolton",
    "country": "US",
    "coord": {
      "lon": -96.458618,
      "lat": 35.391739
    }
  },
  {
    "name": "Chatham County",
    "country": "US",
    "coord": {
      "lon": -79.266411,
      "lat": 35.700142
    }
  },
  {
    "name": "Dyer County",
    "country": "US",
    "coord": {
      "lon": -89.40007,
      "lat": 36.050072
    }
  },
  {
    "name": "Rehoboth",
    "country": "US",
    "coord": {
      "lon": -89.25563,
      "lat": 36.032291
    }
  },
  {
    "name": "Illinois",
    "country": "US",
    "coord": {
      "lon": -89.250366,
      "lat": 40.00032
    }
  },
  {
    "name": "Breaks",
    "country": "US",
    "coord": {
      "lon": -82.280983,
      "lat": 37.29594
    }
  },
  {
    "name": "Curry Village",
    "country": "US",
    "coord": {
      "lon": -119.572662,
      "lat": 37.73687
    }
  },
  {
    "name": "Bent County",
    "country": "US",
    "coord": {
      "lon": -103.067146,
      "lat": 37.966671
    }
  },
  {
    "name": "Riverdale",
    "country": "US",
    "coord": {
      "lon": -103.316597,
      "lat": 38.05862
    }
  },
  {
    "name": "Prowers County",
    "country": "US",
    "coord": {
      "lon": -102.400467,
      "lat": 37.966679
    }
  },
  {
    "name": "Rowan County",
    "country": "US",
    "coord": {
      "lon": -83.433243,
      "lat": 38.183411
    }
  },
  {
    "name": "Guadalcanal Village",
    "country": "US",
    "coord": {
      "lon": -122.293861,
      "lat": 38.11853
    }
  },
  {
    "name": "Garfield County",
    "country": "US",
    "coord": {
      "lon": -111.501282,
      "lat": 37.750542
    }
  },
  {
    "name": "Ravanna",
    "country": "US",
    "coord": {
      "lon": -100.382362,
      "lat": 38.15974
    }
  },
  {
    "name": "Pueblo County",
    "country": "US",
    "coord": {
      "lon": -104.483856,
      "lat": 38.183338
    }
  },
  {
    "name": "Poncha Springs",
    "country": "US",
    "coord": {
      "lon": -106.07724,
      "lat": 38.512779
    }
  },
  {
    "name": "Napa County",
    "country": "US",
    "coord": {
      "lon": -122.334419,
      "lat": 38.483238
    }
  },
  {
    "name": "Redbud Park (historical)",
    "country": "US",
    "coord": {
      "lon": -122.137199,
      "lat": 38.519348
    }
  },
  {
    "name": "Sloughhouse",
    "country": "US",
    "coord": {
      "lon": -121.19384,
      "lat": 38.495739
    }
  },
  {
    "name": "El Paso County",
    "country": "US",
    "coord": {
      "lon": -104.517189,
      "lat": 38.833328
    }
  },
  {
    "name": "Truckton",
    "country": "US",
    "coord": {
      "lon": -104.182182,
      "lat": 38.738049
    }
  },
  {
    "name": "Grainfield",
    "country": "US",
    "coord": {
      "lon": -100.465141,
      "lat": 39.113621
    }
  },
  {
    "name": "Kit Carson County",
    "country": "US",
    "coord": {
      "lon": -102.567139,
      "lat": 39.299992
    }
  },
  {
    "name": "Vanderbilt (historical)",
    "country": "US",
    "coord": {
      "lon": -115.978394,
      "lat": 39.424648
    }
  },
  {
    "name": "Thomas County",
    "country": "US",
    "coord": {
      "lon": -101.05043,
      "lat": 39.349998
    }
  },
  {
    "name": "Harris Park",
    "country": "US",
    "coord": {
      "lon": -105.491112,
      "lat": 39.511662
    }
  },
  {
    "name": "Brindletown",
    "country": "US",
    "coord": {
      "lon": -74.50515,
      "lat": 40.04734
    }
  },
  {
    "name": "Crisman",
    "country": "US",
    "coord": {
      "lon": -105.361382,
      "lat": 40.040821
    }
  },
  {
    "name": "Ward",
    "country": "US",
    "coord": {
      "lon": -105.508331,
      "lat": 40.072208
    }
  },
  {
    "name": "Pawnee City",
    "country": "US",
    "coord": {
      "lon": -96.154449,
      "lat": 40.10833
    }
  },
  {
    "name": "Miami County",
    "country": "US",
    "coord": {
      "lon": -84.233276,
      "lat": 40.050049
    }
  },
  {
    "name": "Meyers (historical)",
    "country": "US",
    "coord": {
      "lon": -84.317169,
      "lat": 40.131439
    }
  },
  {
    "name": "Humboldt County",
    "country": "US",
    "coord": {
      "lon": -123.917831,
      "lat": 40.666519
    }
  },
  {
    "name": "Honeydew",
    "country": "US",
    "coord": {
      "lon": -124.122818,
      "lat": 40.244308
    }
  },
  {
    "name": "Shelby County",
    "country": "US",
    "coord": {
      "lon": -84.183281,
      "lat": 40.316719
    }
  },
  {
    "name": "Lakeside Village",
    "country": "US",
    "coord": {
      "lon": -84.184998,
      "lat": 40.293892
    }
  },
  {
    "name": "Bull Creek",
    "country": "US",
    "coord": {
      "lon": -124.026428,
      "lat": 40.33569
    }
  },
  {
    "name": "Yuma County",
    "country": "US",
    "coord": {
      "lon": -102.433807,
      "lat": 39.983318
    }
  },
  {
    "name": "Barro",
    "country": "US",
    "coord": {
      "lon": -113.488876,
      "lat": 40.726879
    }
  },
  {
    "name": "Verona",
    "country": "US",
    "coord": {
      "lon": -97.966164,
      "lat": 40.553619
    }
  },
  {
    "name": "Seneca County",
    "country": "US",
    "coord": {
      "lon": -83.116577,
      "lat": 41.116718
    }
  },
  {
    "name": "Springville",
    "country": "US",
    "coord": {
      "lon": -83.386589,
      "lat": 41.009781
    }
  },
  {
    "name": "Jacinto",
    "country": "US",
    "coord": {
      "lon": -103.404099,
      "lat": 41.225811
    }
  },
  {
    "name": "Indiana",
    "country": "US",
    "coord": {
      "lon": -93.0252,
      "lat": 41.204441
    }
  },
  {
    "name": "Pike County",
    "country": "US",
    "coord": {
      "lon": -75.124893,
      "lat": 41.50037
    }
  },
  {
    "name": "Indiantown (historical)",
    "country": "US",
    "coord": {
      "lon": -95.108047,
      "lat": 41.312489
    }
  },
  {
    "name": "Fort LaClede (historical)",
    "country": "US",
    "coord": {
      "lon": -108.389267,
      "lat": 41.415241
    }
  },
  {
    "name": "Warren County",
    "country": "US",
    "coord": {
      "lon": -93.550217,
      "lat": 41.333328
    }
  },
  {
    "name": "Palmyra",
    "country": "US",
    "coord": {
      "lon": -93.438271,
      "lat": 41.4361
    }
  },
  {
    "name": "Steubenville",
    "country": "US",
    "coord": {
      "lon": -85.022743,
      "lat": 41.532269
    }
  },
  {
    "name": "Del Norte County",
    "country": "US",
    "coord": {
      "lon": -123.901176,
      "lat": 41.699841
    }
  },
  {
    "name": "Mundale",
    "country": "US",
    "coord": {
      "lon": -75.049606,
      "lat": 42.25481
    }
  },
  {
    "name": "Dwyer Junction",
    "country": "US",
    "coord": {
      "lon": -104.994972,
      "lat": 42.234692
    }
  },
  {
    "name": "Three Creek",
    "country": "US",
    "coord": {
      "lon": -115.1595,
      "lat": 42.071301
    }
  },
  {
    "name": "Camp Wyoma",
    "country": "US",
    "coord": {
      "lon": -73.125381,
      "lat": 42.428421
    }
  },
  {
    "name": "South Gilboa Station",
    "country": "US",
    "coord": {
      "lon": -74.562653,
      "lat": 42.410912
    }
  },
  {
    "name": "South New Berlin",
    "country": "US",
    "coord": {
      "lon": -75.385178,
      "lat": 42.529518
    }
  },
  {
    "name": "Farnams",
    "country": "US",
    "coord": {
      "lon": -73.185661,
      "lat": 42.541752
    }
  },
  {
    "name": "Kalamo",
    "country": "US",
    "coord": {
      "lon": -85.012772,
      "lat": 42.542809
    }
  },
  {
    "name": "Bonneville County",
    "country": "US",
    "coord": {
      "lon": -111.50106,
      "lat": 43.41658
    }
  },
  {
    "name": "Swan Valley",
    "country": "US",
    "coord": {
      "lon": -111.341621,
      "lat": 43.456032
    }
  },
  {
    "name": "Warren",
    "country": "US",
    "coord": {
      "lon": -71.892029,
      "lat": 43.923119
    }
  },
  {
    "name": "Crystal (historical)",
    "country": "US",
    "coord": {
      "lon": -114.32589,
      "lat": 44.267422
    }
  },
  {
    "name": "Franklin County",
    "country": "US",
    "coord": {
      "lon": -74.349609,
      "lat": 44.650051
    }
  },
  {
    "name": "Cabarton",
    "country": "US",
    "coord": {
      "lon": -116.040131,
      "lat": 44.435452
    }
  },
  {
    "name": "Lemhi County",
    "country": "US",
    "coord": {
      "lon": -114.00119,
      "lat": 45.666592
    }
  },
  {
    "name": "Baker",
    "country": "US",
    "coord": {
      "lon": -113.734512,
      "lat": 45.09465
    }
  },
  {
    "name": "Langlade County",
    "country": "US",
    "coord": {
      "lon": -89.05011,
      "lat": 45.250519
    }
  },
  {
    "name": "Albion Center",
    "country": "US",
    "coord": {
      "lon": -94.073593,
      "lat": 45.17691
    }
  },
  {
    "name": "Hilgard",
    "country": "US",
    "coord": {
      "lon": -118.227997,
      "lat": 45.35207
    }
  },
  {
    "name": "Kandiyohi County",
    "country": "US",
    "coord": {
      "lon": -95.000839,
      "lat": 45.133301
    }
  },
  {
    "name": "Sampson",
    "country": "US",
    "coord": {
      "lon": -116.008469,
      "lat": 45.51767
    }
  },
  {
    "name": "Walser Crossing",
    "country": "US",
    "coord": {
      "lon": -103.596298,
      "lat": 46.619179
    }
  },
  {
    "name": "Grays Harbor County",
    "country": "US",
    "coord": {
      "lon": -123.83461,
      "lat": 47.083149
    }
  },
  {
    "name": "Spokane County",
    "country": "US",
    "coord": {
      "lon": -117.367706,
      "lat": 47.616562
    }
  },
  {
    "name": "Stevens County",
    "country": "US",
    "coord": {
      "lon": -117.834419,
      "lat": 48.433231
    }
  },
  {
    "name": "Tyndall Air Force Base",
    "country": "US",
    "coord": {
      "lon": -85.607307,
      "lat": 30.08535
    }
  },
  {
    "name": "Weil",
    "country": "US",
    "coord": {
      "lon": -92.560699,
      "lat": 31.31185
    }
  },
  {
    "name": "Noyes",
    "country": "US",
    "coord": {
      "lon": -97.204514,
      "lat": 48.99749
    }
  },
  {
    "name": "Clearbrook",
    "country": "US",
    "coord": {
      "lon": -122.32238,
      "lat": 48.978729
    }
  },
  {
    "name": "Young",
    "country": "US",
    "coord": {
      "lon": -110.963737,
      "lat": 34.101429
    }
  },
  {
    "name": "South Dyersburg",
    "country": "US",
    "coord": {
      "lon": -89.391182,
      "lat": 36.01952
    }
  },
  {
    "name": "Atwood",
    "country": "US",
    "coord": {
      "lon": -88.678108,
      "lat": 35.973122
    }
  },
  {
    "name": "Le Grand",
    "country": "US",
    "coord": {
      "lon": -120.24823,
      "lat": 37.22855
    }
  },
  {
    "name": "Hoehne",
    "country": "US",
    "coord": {
      "lon": -104.381088,
      "lat": 37.281132
    }
  },
  {
    "name": "Ravenswood",
    "country": "US",
    "coord": {
      "lon": -122.135239,
      "lat": 37.47633
    }
  },
  {
    "name": "Prospect",
    "country": "US",
    "coord": {
      "lon": -83.563812,
      "lat": 39.135071
    }
  },
  {
    "name": "Wendover",
    "country": "US",
    "coord": {
      "lon": -114.037514,
      "lat": 40.737148
    }
  },
  {
    "name": "Fremont",
    "country": "US",
    "coord": {
      "lon": -84.932739,
      "lat": 41.730881
    }
  },
  {
    "name": "Hogansburg",
    "country": "US",
    "coord": {
      "lon": -74.663239,
      "lat": 44.973942
    }
  },
  {
    "name": "North Redwood",
    "country": "US",
    "coord": {
      "lon": -95.094437,
      "lat": 44.56329
    }
  },
  {
    "name": "Marshall",
    "country": "US",
    "coord": {
      "lon": -95.788353,
      "lat": 44.446899
    }
  },
  {
    "name": "Parkwood Estates",
    "country": "US",
    "coord": {
      "lon": -95.084717,
      "lat": 45.130001
    }
  },
  {
    "name": "Park Falls",
    "country": "US",
    "coord": {
      "lon": -90.441551,
      "lat": 45.934399
    }
  },
  {
    "name": "Sauk Centre",
    "country": "US",
    "coord": {
      "lon": -94.952522,
      "lat": 45.737461
    }
  },
  {
    "name": "Pulaski County",
    "country": "US",
    "coord": {
      "lon": -92.200172,
      "lat": 37.83337
    }
  },
  {
    "name": "Umatilla County",
    "country": "US",
    "coord": {
      "lon": -118.50135,
      "lat": 45.50013
    }
  },
  {
    "name": "Zimmerman Terrace",
    "country": "US",
    "coord": {
      "lon": -93.583611,
      "lat": 45.448608
    }
  },
  {
    "name": "Stanislaus County",
    "country": "US",
    "coord": {
      "lon": -121.001602,
      "lat": 37.549931
    }
  },
  {
    "name": "West Brookline",
    "country": "US",
    "coord": {
      "lon": -71.679237,
      "lat": 42.736198
    }
  },
  {
    "name": "Estabrook",
    "country": "US",
    "coord": {
      "lon": -105.429443,
      "lat": 39.383041
    }
  },
  {
    "name": "Spink County",
    "country": "US",
    "coord": {
      "lon": -98.317039,
      "lat": 44.936081
    }
  },
  {
    "name": "Calaveras County",
    "country": "US",
    "coord": {
      "lon": -120.584373,
      "lat": 38.166592
    }
  },
  {
    "name": "Douds Landing",
    "country": "US",
    "coord": {
      "lon": -120.32547,
      "lat": 38.2127
    }
  },
  {
    "name": "Macon",
    "country": "US",
    "coord": {
      "lon": -84.279068,
      "lat": 30.49464
    }
  },
  {
    "name": "Cedar Hill",
    "country": "US",
    "coord": {
      "lon": -83.76545,
      "lat": 34.022331
    }
  },
  {
    "name": "San Luis Obispo County",
    "country": "US",
    "coord": {
      "lon": -120.534332,
      "lat": 35.366638
    }
  },
  {
    "name": "Shafter",
    "country": "US",
    "coord": {
      "lon": -104.303253,
      "lat": 29.820169
    }
  },
  {
    "name": "Navilleton",
    "country": "US",
    "coord": {
      "lon": -85.938583,
      "lat": 38.381729
    }
  },
  {
    "name": "Deming",
    "country": "US",
    "coord": {
      "lon": -86.098602,
      "lat": 40.115311
    }
  },
  {
    "name": "Shermans Corner",
    "country": "US",
    "coord": {
      "lon": -69.006416,
      "lat": 44.45813
    }
  },
  {
    "name": "Lemoyne",
    "country": "US",
    "coord": {
      "lon": -83.474098,
      "lat": 41.495892
    }
  },
  {
    "name": "Walton County",
    "country": "US",
    "coord": {
      "lon": -86.166611,
      "lat": 30.62575
    }
  },
  {
    "name": "New Harmony",
    "country": "US",
    "coord": {
      "lon": -86.279953,
      "lat": 30.853519
    }
  },
  {
    "name": "Tangipahoa Parish",
    "country": "US",
    "coord": {
      "lon": -90.400093,
      "lat": 30.666849
    }
  },
  {
    "name": "Emmet County",
    "country": "US",
    "coord": {
      "lon": -84.916718,
      "lat": 45.53334
    }
  },
  {
    "name": "Canby Corners",
    "country": "US",
    "coord": {
      "lon": -84.915329,
      "lat": 45.63612
    }
  },
  {
    "name": "Talent",
    "country": "US",
    "coord": {
      "lon": -122.788651,
      "lat": 42.245682
    }
  },
  {
    "name": "Volga",
    "country": "US",
    "coord": {
      "lon": -91.540977,
      "lat": 42.80471
    }
  },
  {
    "name": "Goliad County",
    "country": "US",
    "coord": {
      "lon": -97.433601,
      "lat": 28.65027
    }
  },
  {
    "name": "Perry County",
    "country": "US",
    "coord": {
      "lon": -77.249992,
      "lat": 40.500359
    }
  },
  {
    "name": "Dellville",
    "country": "US",
    "coord": {
      "lon": -77.115807,
      "lat": 40.363972
    }
  },
  {
    "name": "Cloverleaf Mobile Home Community",
    "country": "US",
    "coord": {
      "lon": -94.138893,
      "lat": 45.57222
    }
  },
  {
    "name": "Cayuse",
    "country": "US",
    "coord": {
      "lon": -118.566116,
      "lat": 45.67643
    }
  },
  {
    "name": "Ramer",
    "country": "US",
    "coord": {
      "lon": -86.221352,
      "lat": 32.05043
    }
  },
  {
    "name": "Palm Beach",
    "country": "US",
    "coord": {
      "lon": -88.197311,
      "lat": 42.37669
    }
  },
  {
    "name": "Alida",
    "country": "US",
    "coord": {
      "lon": -86.903084,
      "lat": 41.510601
    }
  },
  {
    "name": "Brake",
    "country": "US",
    "coord": {
      "lon": -77.737747,
      "lat": 35.92321
    }
  },
  {
    "name": "Mound City",
    "country": "US",
    "coord": {
      "lon": -90.129257,
      "lat": 35.190369
    }
  },
  {
    "name": "Essex County",
    "country": "US",
    "coord": {
      "lon": -70.832832,
      "lat": 42.666759
    }
  },
  {
    "name": "Republic",
    "country": "US",
    "coord": {
      "lon": -93.480186,
      "lat": 37.120049
    }
  },
  {
    "name": "Shelton",
    "country": "US",
    "coord": {
      "lon": -98.730911,
      "lat": 40.779179
    }
  },
  {
    "name": "Arizona City",
    "country": "US",
    "coord": {
      "lon": -111.670959,
      "lat": 32.75589
    }
  },
  {
    "name": "Saint Mary's County",
    "country": "US",
    "coord": {
      "lon": -76.616348,
      "lat": 38.300129
    }
  },
  {
    "name": "Pin Oak Village",
    "country": "US",
    "coord": {
      "lon": -95.803001,
      "lat": 29.7665
    }
  },
  {
    "name": "Fairtraid",
    "country": "US",
    "coord": {
      "lon": -78.979477,
      "lat": 33.873779
    }
  },
  {
    "name": "Sheltons",
    "country": "US",
    "coord": {
      "lon": -91.907349,
      "lat": 32.8293
    }
  },
  {
    "name": "Country Club Subdivision",
    "country": "US",
    "coord": {
      "lon": -88.806442,
      "lat": 33.423458
    }
  },
  {
    "name": "Mount Enterprise",
    "country": "US",
    "coord": {
      "lon": -94.681038,
      "lat": 31.91795
    }
  },
  {
    "name": "Hermosa",
    "country": "US",
    "coord": {
      "lon": -107.835342,
      "lat": 37.415279
    }
  },
  {
    "name": "La Fetra",
    "country": "US",
    "coord": {
      "lon": -117.881447,
      "lat": 34.138901
    }
  },
  {
    "name": "Boone County",
    "country": "US",
    "coord": {
      "lon": -98.083672,
      "lat": 41.700008
    }
  },
  {
    "name": "Carlyle West",
    "country": "US",
    "coord": {
      "lon": -73.830559,
      "lat": 42.935558
    }
  },
  {
    "name": "South Westerlo",
    "country": "US",
    "coord": {
      "lon": -74.027077,
      "lat": 42.447861
    }
  },
  {
    "name": "Contentnea Junction",
    "country": "US",
    "coord": {
      "lon": -77.93248,
      "lat": 35.678211
    }
  },
  {
    "name": "Lincoln Heights",
    "country": "US",
    "coord": {
      "lon": -77.904709,
      "lat": 35.69405
    }
  },
  {
    "name": "Waterloo",
    "country": "US",
    "coord": {
      "lon": -82.784897,
      "lat": 39.83979
    }
  },
  {
    "name": "Richfield",
    "country": "US",
    "coord": {
      "lon": -88.193977,
      "lat": 43.256119
    }
  },
  {
    "name": "Vaughans Crossroads",
    "country": "US",
    "coord": {
      "lon": -80.102287,
      "lat": 34.208771
    }
  },
  {
    "name": "Choctaw County",
    "country": "US",
    "coord": {
      "lon": -89.237572,
      "lat": 33.340401
    }
  },
  {
    "name": "Saint David",
    "country": "US",
    "coord": {
      "lon": -110.214241,
      "lat": 31.904249
    }
  },
  {
    "name": "Rockwell",
    "country": "US",
    "coord": {
      "lon": -95.549683,
      "lat": 33.591221
    }
  },
  {
    "name": "Cook",
    "country": "US",
    "coord": {
      "lon": -87.469757,
      "lat": 41.377258
    }
  },
  {
    "name": "Barry County",
    "country": "US",
    "coord": {
      "lon": -85.316673,
      "lat": 42.60004
    }
  },
  {
    "name": "Sidney",
    "country": "US",
    "coord": {
      "lon": -90.638748,
      "lat": 44.552738
    }
  },
  {
    "name": "Sunny View",
    "country": "US",
    "coord": {
      "lon": -82.187889,
      "lat": 35.374279
    }
  },
  {
    "name": "Cheboygan County",
    "country": "US",
    "coord": {
      "lon": -84.500587,
      "lat": 45.450008
    }
  },
  {
    "name": "Tomahawk Bluff",
    "country": "US",
    "coord": {
      "lon": -89.08342,
      "lat": 41.380589
    }
  },
  {
    "name": "Dykes",
    "country": "US",
    "coord": {
      "lon": -84.435768,
      "lat": 37.068138
    }
  },
  {
    "name": "Cozy Acres",
    "country": "US",
    "coord": {
      "lon": -81.63694,
      "lat": 40.658329
    }
  },
  {
    "name": "Drake Crossing",
    "country": "US",
    "coord": {
      "lon": -122.655922,
      "lat": 44.925961
    }
  },
  {
    "name": "Gas Point",
    "country": "US",
    "coord": {
      "lon": -122.534462,
      "lat": 40.415428
    }
  },
  {
    "name": "Sloan",
    "country": "US",
    "coord": {
      "lon": -87.476128,
      "lat": 40.301979
    }
  },
  {
    "name": "Creston",
    "country": "US",
    "coord": {
      "lon": -120.523773,
      "lat": 35.51886
    }
  },
  {
    "name": "Oliver Beach",
    "country": "US",
    "coord": {
      "lon": -76.342743,
      "lat": 39.37289
    }
  },
  {
    "name": "New York",
    "country": "US",
    "coord": {
      "lon": -74.005966,
      "lat": 40.714272
    }
  },
  {
    "name": "Albany",
    "country": "US",
    "coord": {
      "lon": -84.155739,
      "lat": 31.57851
    }
  },
  {
    "name": "Charles County",
    "country": "US",
    "coord": {
      "lon": -76.983032,
      "lat": 38.483459
    }
  },
  {
    "name": "Canadian County",
    "country": "US",
    "coord": {
      "lon": -97.983658,
      "lat": 35.533379
    }
  },
  {
    "name": "Kleberg County",
    "country": "US",
    "coord": {
      "lon": -97.716942,
      "lat": 27.433649
    }
  },
  {
    "name": "Boone County",
    "country": "US",
    "coord": {
      "lon": -88.816772,
      "lat": 42.333351
    }
  },
  {
    "name": "Scott County",
    "country": "US",
    "coord": {
      "lon": -93.500793,
      "lat": 44.633301
    }
  },
  {
    "name": "Ulster County",
    "country": "US",
    "coord": {
      "lon": -74.250153,
      "lat": 41.88343
    }
  },
  {
    "name": "New York County",
    "country": "US",
    "coord": {
      "lon": -73.966248,
      "lat": 40.783428
    }
  },
  {
    "name": "Verona",
    "country": "US",
    "coord": {
      "lon": -79.843102,
      "lat": 40.506458
    }
  },
  {
    "name": "Dunn County",
    "country": "US",
    "coord": {
      "lon": -91.883507,
      "lat": 44.949959
    }
  },
  {
    "name": "Mesa County",
    "country": "US",
    "coord": {
      "lon": -108.467308,
      "lat": 39.033321
    }
  },
  {
    "name": "Clifton",
    "country": "US",
    "coord": {
      "lon": -108.448982,
      "lat": 39.09193
    }
  },
  {
    "name": "Washoe County",
    "country": "US",
    "coord": {
      "lon": -119.626312,
      "lat": 40.750179
    }
  },
  {
    "name": "Potter County",
    "country": "US",
    "coord": {
      "lon": -101.900459,
      "lat": 35.416721
    }
  },
  {
    "name": "Howard County",
    "country": "US",
    "coord": {
      "lon": -101.450401,
      "lat": 32.300121
    }
  },
  {
    "name": "Craighead County",
    "country": "US",
    "coord": {
      "lon": -90.650108,
      "lat": 35.816738
    }
  },
  {
    "name": "Pleasant Prairie Mobile Home Court",
    "country": "US",
    "coord": {
      "lon": -87.950829,
      "lat": 42.581669
    }
  },
  {
    "name": "Waupaca County",
    "country": "US",
    "coord": {
      "lon": -88.983437,
      "lat": 44.466648
    }
  },
  {
    "name": "Thurston County",
    "country": "US",
    "coord": {
      "lon": -122.817909,
      "lat": 46.916489
    }
  },
  {
    "name": "East Clarendon",
    "country": "US",
    "coord": {
      "lon": -72.938988,
      "lat": 43.524792
    }
  },
  {
    "name": "Nolan County",
    "country": "US",
    "coord": {
      "lon": -100.417053,
      "lat": 32.300121
    }
  },
  {
    "name": "Allen Farms",
    "country": "US",
    "coord": {
      "lon": -95.291199,
      "lat": 29.6409
    }
  },
  {
    "name": "Pinewood Place",
    "country": "US",
    "coord": {
      "lon": -95.556198,
      "lat": 30.080099
    }
  },
  {
    "name": "Pecos County",
    "country": "US",
    "coord": {
      "lon": -102.750992,
      "lat": 30.75071
    }
  },
  {
    "name": "Little Mexico Colonia",
    "country": "US",
    "coord": {
      "lon": -102.878487,
      "lat": 30.918209
    }
  },
  {
    "name": "Coleman County",
    "country": "US",
    "coord": {
      "lon": -99.45034,
      "lat": 31.78348
    }
  },
  {
    "name": "Basque",
    "country": "US",
    "coord": {
      "lon": -117.868477,
      "lat": 42.410721
    }
  },
  {
    "name": "Cairo",
    "country": "US",
    "coord": {
      "lon": -117.009048,
      "lat": 43.995998
    }
  },
  {
    "name": "Lincoln County",
    "country": "US",
    "coord": {
      "lon": -123.834557,
      "lat": 44.666512
    }
  },
  {
    "name": "Holiday Beach",
    "country": "US",
    "coord": {
      "lon": -124.068169,
      "lat": 44.567619
    }
  },
  {
    "name": "Muskogee County",
    "country": "US",
    "coord": {
      "lon": -95.33358,
      "lat": 35.583431
    }
  },
  {
    "name": "Lawton",
    "country": "US",
    "coord": {
      "lon": -98.390327,
      "lat": 34.608688
    }
  },
  {
    "name": "Frederick",
    "country": "US",
    "coord": {
      "lon": -99.01841,
      "lat": 34.392029
    }
  },
  {
    "name": "Artillery Village",
    "country": "US",
    "coord": {
      "lon": -98.41394,
      "lat": 34.638962
    }
  },
  {
    "name": "Imo",
    "country": "US",
    "coord": {
      "lon": -97.977837,
      "lat": 36.35392
    }
  },
  {
    "name": "Calera",
    "country": "US",
    "coord": {
      "lon": -96.428596,
      "lat": 33.93454
    }
  },
  {
    "name": "Hird",
    "country": "US",
    "coord": {
      "lon": -96.651962,
      "lat": 34.810638
    }
  },
  {
    "name": "White Hill",
    "country": "US",
    "coord": {
      "lon": -81.4813,
      "lat": 41.57674
    }
  },
  {
    "name": "Bulah",
    "country": "US",
    "coord": {
      "lon": -80.668411,
      "lat": 41.782001
    }
  },
  {
    "name": "Stoodley Corners",
    "country": "US",
    "coord": {
      "lon": -73.933182,
      "lat": 42.868961
    }
  },
  {
    "name": "Valley View",
    "country": "US",
    "coord": {
      "lon": -117.224533,
      "lat": 38.068272
    }
  },
  {
    "name": "Sloan",
    "country": "US",
    "coord": {
      "lon": -115.217216,
      "lat": 35.943588
    }
  },
  {
    "name": "Atlantic County",
    "country": "US",
    "coord": {
      "lon": -74.666267,
      "lat": 39.466782
    }
  },
  {
    "name": "Catherine Lake",
    "country": "US",
    "coord": {
      "lon": -77.563858,
      "lat": 34.817661
    }
  },
  {
    "name": "Mobile Court East",
    "country": "US",
    "coord": {
      "lon": -95.748329,
      "lat": 48.84861
    }
  },
  {
    "name": "Hubbard County",
    "country": "US",
    "coord": {
      "lon": -94.900291,
      "lat": 47.09996
    }
  },
  {
    "name": "Douglas County",
    "country": "US",
    "coord": {
      "lon": -95.450317,
      "lat": 45.933289
    }
  },
  {
    "name": "Barnstable County",
    "country": "US",
    "coord": {
      "lon": -70.249458,
      "lat": 41.666779
    }
  },
  {
    "name": "Jefferson County",
    "country": "US",
    "coord": {
      "lon": -121.334488,
      "lat": 44.633171
    }
  },
  {
    "name": "Madras",
    "country": "US",
    "coord": {
      "lon": -121.129494,
      "lat": 44.63345
    }
  },
  {
    "name": "Gas Light Mobile Home Villa",
    "country": "US",
    "coord": {
      "lon": -92.41658,
      "lat": 42.54137
    }
  },
  {
    "name": "Forest City",
    "country": "US",
    "coord": {
      "lon": -93.637161,
      "lat": 43.262459
    }
  },
  {
    "name": "Page Park",
    "country": "US",
    "coord": {
      "lon": -81.86203,
      "lat": 26.579241
    }
  },
  {
    "name": "Ocean Waterway Mobile Home Park",
    "country": "US",
    "coord": {
      "lon": -80.158791,
      "lat": 26.059799
    }
  },
  {
    "name": "Countryside",
    "country": "US",
    "coord": {
      "lon": -105.119438,
      "lat": 39.88583
    }
  },
  {
    "name": "La Fruto",
    "country": "US",
    "coord": {
      "lon": -105.898628,
      "lat": 37.41473
    }
  },
  {
    "name": "La Patera",
    "country": "US",
    "coord": {
      "lon": -119.842079,
      "lat": 34.4375
    }
  },
  {
    "name": "North Norton",
    "country": "US",
    "coord": {
      "lon": -117.252823,
      "lat": 34.105572
    }
  },
  {
    "name": "Spreckels Junction",
    "country": "US",
    "coord": {
      "lon": -121.630783,
      "lat": 36.658291
    }
  },
  {
    "name": "Alisal",
    "country": "US",
    "coord": {
      "lon": -121.617722,
      "lat": 36.679131
    }
  },
  {
    "name": "Alessandro",
    "country": "US",
    "coord": {
      "lon": -117.270317,
      "lat": 33.886131
    }
  },
  {
    "name": "Ballou",
    "country": "US",
    "coord": {
      "lon": -117.607002,
      "lat": 34.049179
    }
  },
  {
    "name": "Burdell",
    "country": "US",
    "coord": {
      "lon": -122.565262,
      "lat": 38.15797
    }
  },
  {
    "name": "Middleton",
    "country": "US",
    "coord": {
      "lon": -122.263031,
      "lat": 38.206581
    }
  },
  {
    "name": "Del Rey Oaks",
    "country": "US",
    "coord": {
      "lon": -121.834953,
      "lat": 36.593288
    }
  },
  {
    "name": "Mather Field",
    "country": "US",
    "coord": {
      "lon": -121.29689,
      "lat": 38.56657
    }
  },
  {
    "name": "Calexico",
    "country": "US",
    "coord": {
      "lon": -115.498878,
      "lat": 32.678951
    }
  },
  {
    "name": "Winslow",
    "country": "US",
    "coord": {
      "lon": -110.697357,
      "lat": 35.024189
    }
  },
  {
    "name": "East Florence",
    "country": "US",
    "coord": {
      "lon": -87.649467,
      "lat": 34.809528
    }
  },
  {
    "name": "Calhoun County",
    "country": "US",
    "coord": {
      "lon": -85.849968,
      "lat": 33.750381
    }
  },
  {
    "name": "Oxford",
    "country": "US",
    "coord": {
      "lon": -85.834961,
      "lat": 33.614269
    }
  },
  {
    "name": "Maumelle",
    "country": "US",
    "coord": {
      "lon": -92.40432,
      "lat": 34.86676
    }
  },
  {
    "name": "Cutler Ridge",
    "country": "US",
    "coord": {
      "lon": -80.346718,
      "lat": 25.58066
    }
  },
  {
    "name": "Fort Pierce",
    "country": "US",
    "coord": {
      "lon": -80.325607,
      "lat": 27.446711
    }
  },
  {
    "name": "Lake Butler",
    "country": "US",
    "coord": {
      "lon": -81.540909,
      "lat": 28.501671
    }
  },
  {
    "name": "Lynn Haven",
    "country": "US",
    "coord": {
      "lon": -85.648262,
      "lat": 30.24548
    }
  },
  {
    "name": "North Fort Myers",
    "country": "US",
    "coord": {
      "lon": -81.880089,
      "lat": 26.66729
    }
  },
  {
    "name": "Panama City",
    "country": "US",
    "coord": {
      "lon": -85.659828,
      "lat": 30.15946
    }
  },
  {
    "name": "Venice",
    "country": "US",
    "coord": {
      "lon": -82.454262,
      "lat": 27.099779
    }
  },
  {
    "name": "Belvedere Park",
    "country": "US",
    "coord": {
      "lon": -84.267418,
      "lat": 33.754829
    }
  },
  {
    "name": "Calhoun",
    "country": "US",
    "coord": {
      "lon": -84.95105,
      "lat": 34.50259
    }
  },
  {
    "name": "Evans",
    "country": "US",
    "coord": {
      "lon": -82.130669,
      "lat": 33.533749
    }
  },
  {
    "name": "Charleston",
    "country": "US",
    "coord": {
      "lon": -88.176147,
      "lat": 39.496151
    }
  },
  {
    "name": "Jacksonville",
    "country": "US",
    "coord": {
      "lon": -90.229012,
      "lat": 39.73394
    }
  },
  {
    "name": "Mattoon",
    "country": "US",
    "coord": {
      "lon": -88.372833,
      "lat": 39.483089
    }
  },
  {
    "name": "Terre Haute",
    "country": "US",
    "coord": {
      "lon": -87.41391,
      "lat": 39.466702
    }
  },
  {
    "name": "Georgetown",
    "country": "US",
    "coord": {
      "lon": -84.55883,
      "lat": 38.209801
    }
  },
  {
    "name": "Henderson",
    "country": "US",
    "coord": {
      "lon": -87.590012,
      "lat": 37.836151
    }
  },
  {
    "name": "Murray",
    "country": "US",
    "coord": {
      "lon": -88.314758,
      "lat": 36.610329
    }
  },
  {
    "name": "Owensboro",
    "country": "US",
    "coord": {
      "lon": -87.113327,
      "lat": 37.77422
    }
  },
  {
    "name": "Radcliff",
    "country": "US",
    "coord": {
      "lon": -85.949127,
      "lat": 37.840351
    }
  },
  {
    "name": "Richmond",
    "country": "US",
    "coord": {
      "lon": -84.294647,
      "lat": 37.74786
    }
  },
  {
    "name": "Winchester",
    "country": "US",
    "coord": {
      "lon": -84.179649,
      "lat": 37.990082
    }
  },
  {
    "name": "Bossier City",
    "country": "US",
    "coord": {
      "lon": -93.732117,
      "lat": 32.515991
    }
  },
  {
    "name": "Monroe",
    "country": "US",
    "coord": {
      "lon": -92.119301,
      "lat": 32.509312
    }
  },
  {
    "name": "Prairieville",
    "country": "US",
    "coord": {
      "lon": -90.972054,
      "lat": 30.302971
    }
  },
  {
    "name": "Green Haven",
    "country": "US",
    "coord": {
      "lon": -76.547737,
      "lat": 39.139549
    }
  },
  {
    "name": "Salisbury",
    "country": "US",
    "coord": {
      "lon": -75.599373,
      "lat": 38.360668
    }
  },
  {
    "name": "Farmington",
    "country": "US",
    "coord": {
      "lon": -90.421791,
      "lat": 37.78088
    }
  },
  {
    "name": "Rolla",
    "country": "US",
    "coord": {
      "lon": -91.771271,
      "lat": 37.951431
    }
  },
  {
    "name": "Saint Joseph",
    "country": "US",
    "coord": {
      "lon": -94.846626,
      "lat": 39.768608
    }
  },
  {
    "name": "Warrensburg",
    "country": "US",
    "coord": {
      "lon": -93.736053,
      "lat": 38.762791
    }
  },
  {
    "name": "Biloxi",
    "country": "US",
    "coord": {
      "lon": -88.885307,
      "lat": 30.39603
    }
  },
  {
    "name": "Brandon",
    "country": "US",
    "coord": {
      "lon": -89.985924,
      "lat": 32.273201
    }
  },
  {
    "name": "Clinton",
    "country": "US",
    "coord": {
      "lon": -90.321762,
      "lat": 32.34153
    }
  },
  {
    "name": "Hattiesburg",
    "country": "US",
    "coord": {
      "lon": -89.290337,
      "lat": 31.32712
    }
  },
  {
    "name": "Madison",
    "country": "US",
    "coord": {
      "lon": -90.115356,
      "lat": 32.461811
    }
  },
  {
    "name": "Oxford",
    "country": "US",
    "coord": {
      "lon": -89.519249,
      "lat": 34.366501
    }
  },
  {
    "name": "Elizabeth City",
    "country": "US",
    "coord": {
      "lon": -76.251053,
      "lat": 36.294601
    }
  },
  {
    "name": "Statesville",
    "country": "US",
    "coord": {
      "lon": -80.887299,
      "lat": 35.782639
    }
  },
  {
    "name": "Springfield",
    "country": "US",
    "coord": {
      "lon": -83.808823,
      "lat": 39.924229
    }
  },
  {
    "name": "Broken Arrow",
    "country": "US",
    "coord": {
      "lon": -95.790817,
      "lat": 36.052601
    }
  },
  {
    "name": "El Reno",
    "country": "US",
    "coord": {
      "lon": -97.955048,
      "lat": 35.532269
    }
  },
  {
    "name": "Muskogee",
    "country": "US",
    "coord": {
      "lon": -95.36969,
      "lat": 35.747879
    }
  },
  {
    "name": "Sand Springs",
    "country": "US",
    "coord": {
      "lon": -96.108887,
      "lat": 36.139809
    }
  },
  {
    "name": "Tahlequah",
    "country": "US",
    "coord": {
      "lon": -94.969963,
      "lat": 35.915371
    }
  },
  {
    "name": "West Chester",
    "country": "US",
    "coord": {
      "lon": -75.605492,
      "lat": 39.960659
    }
  },
  {
    "name": "Saint Andrews",
    "country": "US",
    "coord": {
      "lon": -81.129257,
      "lat": 34.045429
    }
  },
  {
    "name": "Saint Andrews",
    "country": "US",
    "coord": {
      "lon": -81.103149,
      "lat": 34.048759
    }
  },
  {
    "name": "Dyersburg",
    "country": "US",
    "coord": {
      "lon": -89.385628,
      "lat": 36.034519
    }
  },
  {
    "name": "Greeneville",
    "country": "US",
    "coord": {
      "lon": -82.830994,
      "lat": 36.163158
    }
  },
  {
    "name": "Oak Ridge",
    "country": "US",
    "coord": {
      "lon": -84.269638,
      "lat": 36.010361
    }
  },
  {
    "name": "Shelbyville",
    "country": "US",
    "coord": {
      "lon": -86.460274,
      "lat": 35.48341
    }
  },
  {
    "name": "Spring Hill",
    "country": "US",
    "coord": {
      "lon": -86.93,
      "lat": 35.751179
    }
  },
  {
    "name": "Tullahoma",
    "country": "US",
    "coord": {
      "lon": -86.209427,
      "lat": 35.362019
    }
  },
  {
    "name": "Alamo",
    "country": "US",
    "coord": {
      "lon": -98.123062,
      "lat": 26.183689
    }
  },
  {
    "name": "Belton",
    "country": "US",
    "coord": {
      "lon": -97.464447,
      "lat": 31.056009
    }
  },
  {
    "name": "Donna",
    "country": "US",
    "coord": {
      "lon": -98.051949,
      "lat": 26.170349
    }
  },
  {
    "name": "Edinburg",
    "country": "US",
    "coord": {
      "lon": -98.163338,
      "lat": 26.301741
    }
  },
  {
    "name": "Gatesville",
    "country": "US",
    "coord": {
      "lon": -97.743912,
      "lat": 31.43516
    }
  },
  {
    "name": "Killeen",
    "country": "US",
    "coord": {
      "lon": -97.727798,
      "lat": 31.117121
    }
  },
  {
    "name": "Lake Jackson",
    "country": "US",
    "coord": {
      "lon": -95.434387,
      "lat": 29.033859
    }
  },
  {
    "name": "Laredo",
    "country": "US",
    "coord": {
      "lon": -99.507538,
      "lat": 27.506411
    }
  },
  {
    "name": "Lufkin",
    "country": "US",
    "coord": {
      "lon": -94.729103,
      "lat": 31.33824
    }
  },
  {
    "name": "Orange",
    "country": "US",
    "coord": {
      "lon": -93.736549,
      "lat": 30.092991
    }
  },
  {
    "name": "San Juan",
    "country": "US",
    "coord": {
      "lon": -98.155289,
      "lat": 26.18924
    }
  },
  {
    "name": "Sherman",
    "country": "US",
    "coord": {
      "lon": -96.608879,
      "lat": 33.635658
    }
  },
  {
    "name": "Albertville",
    "country": "US",
    "coord": {
      "lon": -86.20887,
      "lat": 34.26759
    }
  },
  {
    "name": "Anniston",
    "country": "US",
    "coord": {
      "lon": -85.831627,
      "lat": 33.659828
    }
  },
  {
    "name": "Ankeny",
    "country": "US",
    "coord": {
      "lon": -93.605766,
      "lat": 41.72971
    }
  },
  {
    "name": "Clive",
    "country": "US",
    "coord": {
      "lon": -93.724113,
      "lat": 41.603039
    }
  },
  {
    "name": "Mason City",
    "country": "US",
    "coord": {
      "lon": -93.201042,
      "lat": 43.153568
    }
  },
  {
    "name": "Newton",
    "country": "US",
    "coord": {
      "lon": -93.047981,
      "lat": 41.699711
    }
  },
  {
    "name": "Ottumwa",
    "country": "US",
    "coord": {
      "lon": -92.411301,
      "lat": 41.020012
    }
  },
  {
    "name": "Waterloo",
    "country": "US",
    "coord": {
      "lon": -92.342957,
      "lat": 42.49276
    }
  },
  {
    "name": "West Des Moines",
    "country": "US",
    "coord": {
      "lon": -93.745308,
      "lat": 41.571991
    }
  },
  {
    "name": "Cicero",
    "country": "US",
    "coord": {
      "lon": -87.753937,
      "lat": 41.845589
    }
  },
  {
    "name": "Danville",
    "country": "US",
    "coord": {
      "lon": -87.63002,
      "lat": 40.124481
    }
  },
  {
    "name": "Brockton",
    "country": "US",
    "coord": {
      "lon": -71.018379,
      "lat": 42.083431
    }
  },
  {
    "name": "Eastpointe",
    "country": "US",
    "coord": {
      "lon": -82.955467,
      "lat": 42.468369
    }
  },
  {
    "name": "Haslett",
    "country": "US",
    "coord": {
      "lon": -84.401077,
      "lat": 42.746979
    }
  },
  {
    "name": "Midland",
    "country": "US",
    "coord": {
      "lon": -84.247208,
      "lat": 43.615582
    }
  },
  {
    "name": "Okemos",
    "country": "US",
    "coord": {
      "lon": -84.427467,
      "lat": 42.72226
    }
  },
  {
    "name": "Mankato",
    "country": "US",
    "coord": {
      "lon": -93.999397,
      "lat": 44.163582
    }
  },
  {
    "name": "Owatonna",
    "country": "US",
    "coord": {
      "lon": -93.226044,
      "lat": 44.083851
    }
  },
  {
    "name": "Sartell",
    "country": "US",
    "coord": {
      "lon": -94.20694,
      "lat": 45.621632
    }
  },
  {
    "name": "Winona",
    "country": "US",
    "coord": {
      "lon": -91.63932,
      "lat": 44.049961
    }
  },
  {
    "name": "Auburn",
    "country": "US",
    "coord": {
      "lon": -76.566048,
      "lat": 42.931728
    }
  },
  {
    "name": "Central Islip",
    "country": "US",
    "coord": {
      "lon": -73.201782,
      "lat": 40.790649
    }
  },
  {
    "name": "Eggertsville",
    "country": "US",
    "coord": {
      "lon": -78.803917,
      "lat": 42.96339
    }
  },
  {
    "name": "Gloversville",
    "country": "US",
    "coord": {
      "lon": -74.34375,
      "lat": 43.052849
    }
  },
  {
    "name": "Ithaca",
    "country": "US",
    "coord": {
      "lon": -76.496613,
      "lat": 42.440632
    }
  },
  {
    "name": "Plattsburgh",
    "country": "US",
    "coord": {
      "lon": -73.452911,
      "lat": 44.69949
    }
  },
  {
    "name": "Utica",
    "country": "US",
    "coord": {
      "lon": -75.232658,
      "lat": 43.100899
    }
  },
  {
    "name": "Austintown",
    "country": "US",
    "coord": {
      "lon": -80.764519,
      "lat": 41.101719
    }
  },
  {
    "name": "Fremont",
    "country": "US",
    "coord": {
      "lon": -83.121857,
      "lat": 41.35033
    }
  },
  {
    "name": "Johnstown",
    "country": "US",
    "coord": {
      "lon": -78.921967,
      "lat": 40.32674
    }
  },
  {
    "name": "Upper Saint Clair",
    "country": "US",
    "coord": {
      "lon": -80.083389,
      "lat": 40.335899
    }
  },
  {
    "name": "Sioux Falls",
    "country": "US",
    "coord": {
      "lon": -96.700333,
      "lat": 43.549969
    }
  },
  {
    "name": "Beaver Dam",
    "country": "US",
    "coord": {
      "lon": -88.837334,
      "lat": 43.457771
    }
  },
  {
    "name": "Janesville",
    "country": "US",
    "coord": {
      "lon": -89.018723,
      "lat": 42.682789
    }
  },
  {
    "name": "Oshkosh",
    "country": "US",
    "coord": {
      "lon": -88.54261,
      "lat": 44.024712
    }
  },
  {
    "name": "Stevens Point",
    "country": "US",
    "coord": {
      "lon": -89.574562,
      "lat": 44.523579
    }
  },
  {
    "name": "Wausau",
    "country": "US",
    "coord": {
      "lon": -89.630119,
      "lat": 44.959141
    }
  },
  {
    "name": "Weirton Heights",
    "country": "US",
    "coord": {
      "lon": -80.539238,
      "lat": 40.408401
    }
  },
  {
    "name": "Buckeye",
    "country": "US",
    "coord": {
      "lon": -112.583778,
      "lat": 33.370319
    }
  },
  {
    "name": "Prescott Valley",
    "country": "US",
    "coord": {
      "lon": -112.325249,
      "lat": 34.589409
    }
  },
  {
    "name": "Atascadero",
    "country": "US",
    "coord": {
      "lon": -120.670731,
      "lat": 35.489422
    }
  },
  {
    "name": "Chico",
    "country": "US",
    "coord": {
      "lon": -121.837479,
      "lat": 39.728489
    }
  },
  {
    "name": "Clovis",
    "country": "US",
    "coord": {
      "lon": -119.702919,
      "lat": 36.82523
    }
  },
  {
    "name": "Corcoran",
    "country": "US",
    "coord": {
      "lon": -119.560402,
      "lat": 36.098011
    }
  },
  {
    "name": "Dinuba",
    "country": "US",
    "coord": {
      "lon": -119.38707,
      "lat": 36.543282
    }
  },
  {
    "name": "Isla Vista",
    "country": "US",
    "coord": {
      "lon": -119.86097,
      "lat": 34.41333
    }
  },
  {
    "name": "Lynwood",
    "country": "US",
    "coord": {
      "lon": -118.211456,
      "lat": 33.93029
    }
  },
  {
    "name": "Nipomo",
    "country": "US",
    "coord": {
      "lon": -120.475998,
      "lat": 35.042751
    }
  },
  {
    "name": "Oakdale",
    "country": "US",
    "coord": {
      "lon": -120.847153,
      "lat": 37.76659
    }
  },
  {
    "name": "Palm Desert",
    "country": "US",
    "coord": {
      "lon": -116.374458,
      "lat": 33.72224
    }
  },
  {
    "name": "Patterson",
    "country": "US",
    "coord": {
      "lon": -121.129662,
      "lat": 37.4716
    }
  },
  {
    "name": "Reedley",
    "country": "US",
    "coord": {
      "lon": -119.450401,
      "lat": 36.59634
    }
  },
  {
    "name": "San Jacinto",
    "country": "US",
    "coord": {
      "lon": -116.958641,
      "lat": 33.783909
    }
  },
  {
    "name": "San Pedro",
    "country": "US",
    "coord": {
      "lon": -118.29229,
      "lat": 33.735851
    }
  },
  {
    "name": "Seaside",
    "country": "US",
    "coord": {
      "lon": -121.851624,
      "lat": 36.611069
    }
  },
  {
    "name": "Turlock",
    "country": "US",
    "coord": {
      "lon": -120.846588,
      "lat": 37.494659
    }
  },
  {
    "name": "Victorville",
    "country": "US",
    "coord": {
      "lon": -117.291161,
      "lat": 34.53611
    }
  },
  {
    "name": "Visalia",
    "country": "US",
    "coord": {
      "lon": -119.292061,
      "lat": 36.330231
    }
  },
  {
    "name": "Canon City",
    "country": "US",
    "coord": {
      "lon": -105.242447,
      "lat": 38.440979
    }
  },
  {
    "name": "Alamogordo",
    "country": "US",
    "coord": {
      "lon": -105.960258,
      "lat": 32.899529
    }
  },
  {
    "name": "Las Cruces",
    "country": "US",
    "coord": {
      "lon": -106.778343,
      "lat": 32.312321
    }
  },
  {
    "name": "Roswell",
    "country": "US",
    "coord": {
      "lon": -104.523018,
      "lat": 33.394272
    }
  },
  {
    "name": "Fernley",
    "country": "US",
    "coord": {
      "lon": -119.251831,
      "lat": 39.607971
    }
  },
  {
    "name": "North Las Vegas",
    "country": "US",
    "coord": {
      "lon": -115.1175,
      "lat": 36.19886
    }
  },
  {
    "name": "Amarillo",
    "country": "US",
    "coord": {
      "lon": -101.831299,
      "lat": 35.222
    }
  },
  {
    "name": "Odessa",
    "country": "US",
    "coord": {
      "lon": -102.367638,
      "lat": 31.84568
    }
  },
  {
    "name": "San Angelo",
    "country": "US",
    "coord": {
      "lon": -100.437042,
      "lat": 31.46377
    }
  },
  {
    "name": "Moscow",
    "country": "US",
    "coord": {
      "lon": -117.000168,
      "lat": 46.732391
    }
  },
  {
    "name": "Kalispell",
    "country": "US",
    "coord": {
      "lon": -114.312912,
      "lat": 48.195789
    }
  },
  {
    "name": "Springfield",
    "country": "US",
    "coord": {
      "lon": -123.022034,
      "lat": 44.046242
    }
  },
  {
    "name": "Sandy Hills",
    "country": "US",
    "coord": {
      "lon": -111.850769,
      "lat": 40.581059
    }
  },
  {
    "name": "Richland",
    "country": "US",
    "coord": {
      "lon": -119.284462,
      "lat": 46.28569
    }
  },
  {
    "name": "Silverdale",
    "country": "US",
    "coord": {
      "lon": -122.69487,
      "lat": 47.644539
    }
  },
  {
    "name": "Pearl City",
    "country": "US",
    "coord": {
      "lon": -157.973328,
      "lat": 21.397221
    }
  },
  {
    "name": "Waipahu",
    "country": "US",
    "coord": {
      "lon": -158.009171,
      "lat": 21.386669
    }
  },
  {
    "name": "Ewa Gentry",
    "country": "US",
    "coord": {
      "lon": -158.030823,
      "lat": 21.34417
    }
  },
  {
    "name": "Hilo",
    "country": "US",
    "coord": {
      "lon": -155.089996,
      "lat": 19.729719
    }
  },
  {
    "name": "Alafaya",
    "country": "US",
    "coord": {
      "lon": -81.211403,
      "lat": 28.5641
    }
  },
  {
    "name": "Fort Bragg",
    "country": "US",
    "coord": {
      "lon": -79.006027,
      "lat": 35.139
    }
  },
  {
    "name": "Makakilo",
    "country": "US",
    "coord": {
      "lon": -158.086548,
      "lat": 21.352369
    }
  },
  {
    "name": "United States",
    "country": "US",
    "coord": {
      "lon": -98.5,
      "lat": 39.759998
    }
  },
  {
    "name": "Florida",
    "country": "US",
    "coord": {
      "lon": -82.500099,
      "lat": 28.75054
    }
  },
  {
    "name": "Miami-Dade County",
    "country": "US",
    "coord": {
      "lon": -80.533112,
      "lat": 25.61705
    }
  },
  {
    "name": "Houston County",
    "country": "US",
    "coord": {
      "lon": -85.316597,
      "lat": 31.150181
    }
  },
  {
    "name": "Cochise County",
    "country": "US",
    "coord": {
      "lon": -109.742287,
      "lat": 31.93203
    }
  },
  {
    "name": "Coryell County",
    "country": "US",
    "coord": {
      "lon": -97.800301,
      "lat": 31.383499
    }
  },
  {
    "name": "Pecan Wells",
    "country": "US",
    "coord": {
      "lon": -98.371429,
      "lat": 31.57655
    }
  },
  {
    "name": "Harrington Place",
    "country": "US",
    "coord": {
      "lon": -110.546738,
      "lat": 32.04258
    }
  },
  {
    "name": "Franklin County",
    "country": "US",
    "coord": {
      "lon": -72.866249,
      "lat": 44.850052
    }
  },
  {
    "name": "East Richford",
    "country": "US",
    "coord": {
      "lon": -72.58596,
      "lat": 45.011162
    }
  },
  {
    "name": "Lone Butte Ranch",
    "country": "US",
    "coord": {
      "lon": -112.047089,
      "lat": 33.232552
    }
  },
  {
    "name": "Drew County",
    "country": "US",
    "coord": {
      "lon": -91.716797,
      "lat": 33.600109
    }
  },
  {
    "name": "Jerome",
    "country": "US",
    "coord": {
      "lon": -91.470123,
      "lat": 33.399559
    }
  },
  {
    "name": "Putnam County",
    "country": "US",
    "coord": {
      "lon": -83.349876,
      "lat": 33.333469
    }
  },
  {
    "name": "Centennial",
    "country": "US",
    "coord": {
      "lon": -83.612389,
      "lat": 33.58596
    }
  },
  {
    "name": "Gallups",
    "country": "US",
    "coord": {
      "lon": -111.186523,
      "lat": 34.078651
    }
  },
  {
    "name": "Marion County",
    "country": "US",
    "coord": {
      "lon": -79.433113,
      "lat": 34.083488
    }
  },
  {
    "name": "Blue Brick",
    "country": "US",
    "coord": {
      "lon": -79.51783,
      "lat": 34.223492
    }
  },
  {
    "name": "Poland Junction",
    "country": "US",
    "coord": {
      "lon": -112.269333,
      "lat": 34.450859
    }
  },
  {
    "name": "Mohave Crossing",
    "country": "US",
    "coord": {
      "lon": -114.58886,
      "lat": 35.333328
    }
  },
  {
    "name": "Pope County",
    "country": "US",
    "coord": {
      "lon": -88.566711,
      "lat": 37.416721
    }
  },
  {
    "name": "Baumberg",
    "country": "US",
    "coord": {
      "lon": -122.100243,
      "lat": 37.62077
    }
  },
  {
    "name": "Mariposa County",
    "country": "US",
    "coord": {
      "lon": -119.901009,
      "lat": 37.549938
    }
  },
  {
    "name": "Hamim",
    "country": "US",
    "coord": {
      "lon": -83.313789,
      "lat": 38.127579
    }
  },
  {
    "name": "Solano County",
    "country": "US",
    "coord": {
      "lon": -121.951073,
      "lat": 38.23325
    }
  },
  {
    "name": "Valley View",
    "country": "US",
    "coord": {
      "lon": -93.428261,
      "lat": 38.206139
    }
  },
  {
    "name": "Lydia",
    "country": "US",
    "coord": {
      "lon": -101.29155,
      "lat": 38.278351
    }
  },
  {
    "name": "Chaffee County",
    "country": "US",
    "coord": {
      "lon": -106.183907,
      "lat": 38.766659
    }
  },
  {
    "name": "Sussex County",
    "country": "US",
    "coord": {
      "lon": -75.416313,
      "lat": 38.700111
    }
  },
  {
    "name": "Lazy Lagoon Mobile Home Park",
    "country": "US",
    "coord": {
      "lon": -75.233521,
      "lat": 38.502609
    }
  },
  {
    "name": "Montgomery County",
    "country": "US",
    "coord": {
      "lon": -77.199699,
      "lat": 39.150108
    }
  },
  {
    "name": "Rushville",
    "country": "US",
    "coord": {
      "lon": -77.327477,
      "lat": 39.070389
    }
  },
  {
    "name": "Gove County",
    "country": "US",
    "coord": {
      "lon": -100.483749,
      "lat": 38.916679
    }
  },
  {
    "name": "Ocean County",
    "country": "US",
    "coord": {
      "lon": -74.216248,
      "lat": 39.90012
    }
  },
  {
    "name": "Gooding",
    "country": "US",
    "coord": {
      "lon": -105.083038,
      "lat": 40.073601
    }
  },
  {
    "name": "Logan County",
    "country": "US",
    "coord": {
      "lon": -89.36676,
      "lat": 40.133381
    }
  },
  {
    "name": "Bakerville",
    "country": "US",
    "coord": {
      "lon": -89.196762,
      "lat": 40.063099
    }
  },
  {
    "name": "Pawnee County",
    "country": "US",
    "coord": {
      "lon": -96.23362,
      "lat": 40.133331
    }
  },
  {
    "name": "Lena",
    "country": "US",
    "coord": {
      "lon": -84.032158,
      "lat": 40.140888
    }
  },
  {
    "name": "Hygiene",
    "country": "US",
    "coord": {
      "lon": -105.180817,
      "lat": 40.188599
    }
  },
  {
    "name": "Ough",
    "country": "US",
    "coord": {
      "lon": -101.512672,
      "lat": 40.32222
    }
  },
  {
    "name": "Grand County",
    "country": "US",
    "coord": {
      "lon": -106.083908,
      "lat": 40.06665
    }
  },
  {
    "name": "Kremmling",
    "country": "US",
    "coord": {
      "lon": -106.388924,
      "lat": 40.058868
    }
  },
  {
    "name": "Lucas County",
    "country": "US",
    "coord": {
      "lon": -93.300209,
      "lat": 41.033329
    }
  },
  {
    "name": "Russell",
    "country": "US",
    "coord": {
      "lon": -93.19854,
      "lat": 40.981949
    }
  },
  {
    "name": "Henderson",
    "country": "US",
    "coord": {
      "lon": -95.431107,
      "lat": 41.140549
    }
  },
  {
    "name": "Kimball County",
    "country": "US",
    "coord": {
      "lon": -103.717163,
      "lat": 41.199982
    }
  },
  {
    "name": "Adair County",
    "country": "US",
    "coord": {
      "lon": -94.466911,
      "lat": 41.333321
    }
  },
  {
    "name": "Canby",
    "country": "US",
    "coord": {
      "lon": -94.566643,
      "lat": 41.41721
    }
  },
  {
    "name": "Mahaska County",
    "country": "US",
    "coord": {
      "lon": -92.650192,
      "lat": 41.33334
    }
  },
  {
    "name": "Indianapolis",
    "country": "US",
    "coord": {
      "lon": -92.433517,
      "lat": 41.39695
    }
  },
  {
    "name": "Steuben County",
    "country": "US",
    "coord": {
      "lon": -84.999413,
      "lat": 41.634769
    }
  },
  {
    "name": "Cleaver",
    "country": "US",
    "coord": {
      "lon": -75.235451,
      "lat": 42.180641
    }
  },
  {
    "name": "West Cameron",
    "country": "US",
    "coord": {
      "lon": -77.419434,
      "lat": 42.223961
    }
  },
  {
    "name": "Berkshire County",
    "country": "US",
    "coord": {
      "lon": -73.24955,
      "lat": 42.33342
    }
  },
  {
    "name": "Curry County",
    "country": "US",
    "coord": {
      "lon": -124.217873,
      "lat": 42.500111
    }
  },
  {
    "name": "Bagnell Ferry",
    "country": "US",
    "coord": {
      "lon": -124.367882,
      "lat": 42.466499
    }
  },
  {
    "name": "Chenango County",
    "country": "US",
    "coord": {
      "lon": -75.582962,
      "lat": 42.46674
    }
  },
  {
    "name": "Eaton County",
    "country": "US",
    "coord": {
      "lon": -84.849991,
      "lat": 42.60004
    }
  },
  {
    "name": "North Lakeport",
    "country": "US",
    "coord": {
      "lon": -82.496872,
      "lat": 43.137249
    }
  },
  {
    "name": "Lourdes",
    "country": "US",
    "coord": {
      "lon": -92.298782,
      "lat": 43.262192
    }
  },
  {
    "name": "Belknap County",
    "country": "US",
    "coord": {
      "lon": -71.432854,
      "lat": 43.516739
    }
  },
  {
    "name": "Belmont",
    "country": "US",
    "coord": {
      "lon": -71.477852,
      "lat": 43.445358
    }
  },
  {
    "name": "Grafton County",
    "country": "US",
    "coord": {
      "lon": -71.79953,
      "lat": 43.950069
    }
  },
  {
    "name": "Dorns Faro Springs Beach",
    "country": "US",
    "coord": {
      "lon": -88.319267,
      "lat": 44.12249
    }
  },
  {
    "name": "Coos County",
    "country": "US",
    "coord": {
      "lon": -71.316193,
      "lat": 44.633389
    }
  },
  {
    "name": "Benton County",
    "country": "US",
    "coord": {
      "lon": -123.417877,
      "lat": 44.499569
    }
  },
  {
    "name": "Adair Village",
    "country": "US",
    "coord": {
      "lon": -123.21788,
      "lat": 44.670681
    }
  },
  {
    "name": "Forest City",
    "country": "US",
    "coord": {
      "lon": -94.466377,
      "lat": 45.206348
    }
  },
  {
    "name": "Union County",
    "country": "US",
    "coord": {
      "lon": -118.001328,
      "lat": 45.36652
    }
  },
  {
    "name": "Deep Creek (historical)",
    "country": "US",
    "coord": {
      "lon": -122.397034,
      "lat": 45.38623
    }
  },
  {
    "name": "Lake County",
    "country": "US",
    "coord": {
      "lon": -91.416817,
      "lat": 47.63324
    }
  },
  {
    "name": "Castle Danger",
    "country": "US",
    "coord": {
      "lon": -91.503227,
      "lat": 47.120762
    }
  },
  {
    "name": "Newton",
    "country": "US",
    "coord": {
      "lon": -124.05545,
      "lat": 47.0812
    }
  },
  {
    "name": "Chester",
    "country": "US",
    "coord": {
      "lon": -117.250481,
      "lat": 47.61795
    }
  },
  {
    "name": "Bingville",
    "country": "US",
    "coord": {
      "lon": -117.629959,
      "lat": 48.384899
    }
  },
  {
    "name": "East Glacier Park",
    "country": "US",
    "coord": {
      "lon": -113.218147,
      "lat": 48.44136
    }
  },
  {
    "name": "Juneau City and Borough",
    "country": "US",
    "coord": {
      "lon": -134.333328,
      "lat": 58.416672
    }
  },
  {
    "name": "West Juneau",
    "country": "US",
    "coord": {
      "lon": -134.429443,
      "lat": 58.294998
    }
  },
  {
    "name": "Thane",
    "country": "US",
    "coord": {
      "lon": -134.330276,
      "lat": 58.264172
    }
  },
  {
    "name": "Paxson",
    "country": "US",
    "coord": {
      "lon": -145.613068,
      "lat": 63.089722
    }
  },
  {
    "name": "Meadowlakes",
    "country": "US",
    "coord": {
      "lon": -98.29641,
      "lat": 30.56241
    }
  },
  {
    "name": "Medina",
    "country": "US",
    "coord": {
      "lon": -78.386971,
      "lat": 43.220058
    }
  },
  {
    "name": "Mazama",
    "country": "US",
    "coord": {
      "lon": -120.403976,
      "lat": 48.592091
    }
  },
  {
    "name": "Teagueville (historical)",
    "country": "US",
    "coord": {
      "lon": -119.082047,
      "lat": 34.408329
    }
  },
  {
    "name": "Eastland Heights",
    "country": "US",
    "coord": {
      "lon": -115.188057,
      "lat": 36.192188
    }
  },
  {
    "name": "Shea",
    "country": "US",
    "coord": {
      "lon": -97.780891,
      "lat": 36.384201
    }
  },
  {
    "name": "Corning",
    "country": "US",
    "coord": {
      "lon": -90.579826,
      "lat": 36.407841
    }
  },
  {
    "name": "Freeman (historical)",
    "country": "US",
    "coord": {
      "lon": -94.146873,
      "lat": 36.290352
    }
  },
  {
    "name": "Mellan",
    "country": "US",
    "coord": {
      "lon": -116.59478,
      "lat": 37.71244
    }
  },
  {
    "name": "De Soto",
    "country": "US",
    "coord": {
      "lon": -90.55513,
      "lat": 38.1395
    }
  },
  {
    "name": "Vermont",
    "country": "US",
    "coord": {
      "lon": -86.031929,
      "lat": 40.49921
    }
  },
  {
    "name": "Oak Ridge",
    "country": "US",
    "coord": {
      "lon": -89.437592,
      "lat": 40.811432
    }
  },
  {
    "name": "Wood Oaks Glen",
    "country": "US",
    "coord": {
      "lon": -87.884171,
      "lat": 42.125561
    }
  },
  {
    "name": "Pierre",
    "country": "US",
    "coord": {
      "lon": -100.350967,
      "lat": 44.36832
    }
  },
  {
    "name": "Randolph Hill",
    "country": "US",
    "coord": {
      "lon": -71.278412,
      "lat": 44.388119
    }
  },
  {
    "name": "Jay",
    "country": "US",
    "coord": {
      "lon": -72.43705,
      "lat": 44.947552
    }
  },
  {
    "name": "Luck",
    "country": "US",
    "coord": {
      "lon": -92.482697,
      "lat": 45.576069
    }
  },
  {
    "name": "Cameron Park",
    "country": "US",
    "coord": {
      "lon": -108.581802,
      "lat": 45.799671
    }
  },
  {
    "name": "Seminole County",
    "country": "US",
    "coord": {
      "lon": -84.866592,
      "lat": 30.933519
    }
  },
  {
    "name": "Helm",
    "country": "US",
    "coord": {
      "lon": -92.154343,
      "lat": 37.984211
    }
  },
  {
    "name": "Aiken County",
    "country": "US",
    "coord": {
      "lon": -81.599831,
      "lat": 33.583481
    }
  },
  {
    "name": "New Ellenton",
    "country": "US",
    "coord": {
      "lon": -81.685669,
      "lat": 33.421532
    }
  },
  {
    "name": "Tioga County",
    "country": "US",
    "coord": {
      "lon": -76.266319,
      "lat": 42.16674
    }
  },
  {
    "name": "Crum Town",
    "country": "US",
    "coord": {
      "lon": -76.444656,
      "lat": 42.255348
    }
  },
  {
    "name": "Hillsborough County",
    "country": "US",
    "coord": {
      "lon": -71.716187,
      "lat": 42.933418
    }
  },
  {
    "name": "Gilchrist County",
    "country": "US",
    "coord": {
      "lon": -82.791512,
      "lat": 29.70857
    }
  },
  {
    "name": "Thames",
    "country": "US",
    "coord": {
      "lon": -82.692062,
      "lat": 29.680519
    }
  },
  {
    "name": "Pamlico County",
    "country": "US",
    "coord": {
      "lon": -76.749649,
      "lat": 35.133499
    }
  },
  {
    "name": "Arapahoe",
    "country": "US",
    "coord": {
      "lon": -76.825493,
      "lat": 35.025719
    }
  },
  {
    "name": "Barrow County",
    "country": "US",
    "coord": {
      "lon": -83.71656,
      "lat": 33.98344
    }
  },
  {
    "name": "Honolulu County",
    "country": "US",
    "coord": {
      "lon": -157.966675,
      "lat": 21.466669
    }
  },
  {
    "name": "Maunalani Heights",
    "country": "US",
    "coord": {
      "lon": -157.792496,
      "lat": 21.296671
    }
  },
  {
    "name": "Presidio County",
    "country": "US",
    "coord": {
      "lon": -104.25103,
      "lat": 29.91684
    }
  },
  {
    "name": "Floyd County",
    "country": "US",
    "coord": {
      "lon": -85.873581,
      "lat": 38.324509
    }
  },
  {
    "name": "Hamilton County",
    "country": "US",
    "coord": {
      "lon": -86.008598,
      "lat": 40.045589
    }
  },
  {
    "name": "Waldo County",
    "country": "US",
    "coord": {
      "lon": -69.09948,
      "lat": 44.46674
    }
  },
  {
    "name": "San Augustine County",
    "country": "US",
    "coord": {
      "lon": -94.166862,
      "lat": 31.400181
    }
  },
  {
    "name": "Townsend",
    "country": "US",
    "coord": {
      "lon": -94.311867,
      "lat": 31.351021
    }
  },
  {
    "name": "Osceola",
    "country": "US",
    "coord": {
      "lon": -90.311478,
      "lat": 30.65074
    }
  },
  {
    "name": "Adams County",
    "country": "US",
    "coord": {
      "lon": -104.38385,
      "lat": 39.86665
    }
  },
  {
    "name": "Strasburg",
    "country": "US",
    "coord": {
      "lon": -104.323288,
      "lat": 39.738319
    }
  },
  {
    "name": "Oracle Junction",
    "country": "US",
    "coord": {
      "lon": -110.933441,
      "lat": 32.555069
    }
  },
  {
    "name": "Clayton County",
    "country": "US",
    "coord": {
      "lon": -91.366798,
      "lat": 42.833321
    }
  },
  {
    "name": "Tolland County",
    "country": "US",
    "coord": {
      "lon": -72.349533,
      "lat": 41.850101
    }
  },
  {
    "name": "Windermere",
    "country": "US",
    "coord": {
      "lon": -72.484253,
      "lat": 41.87788
    }
  },
  {
    "name": "Benton County",
    "country": "US",
    "coord": {
      "lon": -93.983589,
      "lat": 45.69997
    }
  },
  {
    "name": "Faith Creek (historical)",
    "country": "US",
    "coord": {
      "lon": -146.379166,
      "lat": 65.288887
    }
  },
  {
    "name": "Montgomery County",
    "country": "US",
    "coord": {
      "lon": -86.233299,
      "lat": 32.233479
    }
  },
  {
    "name": "LaPorte County",
    "country": "US",
    "coord": {
      "lon": -86.722519,
      "lat": 41.6106
    }
  },
  {
    "name": "Edgecombe County",
    "country": "US",
    "coord": {
      "lon": -77.583031,
      "lat": 35.900162
    }
  },
  {
    "name": "Crittenden County",
    "country": "US",
    "coord": {
      "lon": -90.283432,
      "lat": 35.233421
    }
  },
  {
    "name": "Copeland",
    "country": "US",
    "coord": {
      "lon": -95.271889,
      "lat": 32.23988
    }
  },
  {
    "name": "Beyerville",
    "country": "US",
    "coord": {
      "lon": -110.878418,
      "lat": 31.390381
    }
  },
  {
    "name": "Buffalo County",
    "country": "US",
    "coord": {
      "lon": -99.083702,
      "lat": 40.85001
    }
  },
  {
    "name": "Tajiguas",
    "country": "US",
    "coord": {
      "lon": -120.108482,
      "lat": 34.46666
    }
  },
  {
    "name": "Horry County",
    "country": "US",
    "coord": {
      "lon": -78.983093,
      "lat": 33.91684
    }
  },
  {
    "name": "Morehouse Parish",
    "country": "US",
    "coord": {
      "lon": -91.800133,
      "lat": 32.800129
    }
  },
  {
    "name": "Rusk County",
    "country": "US",
    "coord": {
      "lon": -94.783546,
      "lat": 32.116829
    }
  },
  {
    "name": "El Nido Mobile Home Estates",
    "country": "US",
    "coord": {
      "lon": -117.646988,
      "lat": 33.511139
    }
  },
  {
    "name": "Saratoga County",
    "country": "US",
    "coord": {
      "lon": -73.849571,
      "lat": 43.100071
    }
  },
  {
    "name": "Wilson County",
    "country": "US",
    "coord": {
      "lon": -77.916367,
      "lat": 35.71682
    }
  },
  {
    "name": "Brookfield Village",
    "country": "US",
    "coord": {
      "lon": -122.186081,
      "lat": 37.73521
    }
  },
  {
    "name": "Darlington County",
    "country": "US",
    "coord": {
      "lon": -79.966454,
      "lat": 34.333488
    }
  },
  {
    "name": "Valley Vista",
    "country": "US",
    "coord": {
      "lon": -117.073082,
      "lat": 33.741409
    }
  },
  {
    "name": "Lamar County",
    "country": "US",
    "coord": {
      "lon": -95.583572,
      "lat": 33.666771
    }
  },
  {
    "name": "Nashville",
    "country": "US",
    "coord": {
      "lon": -85.093048,
      "lat": 42.60281
    }
  },
  {
    "name": "West Falmouth (historical)",
    "country": "US",
    "coord": {
      "lon": -70.295052,
      "lat": 43.740082
    }
  },
  {
    "name": "Clark County",
    "country": "US",
    "coord": {
      "lon": -90.633476,
      "lat": 44.733299
    }
  },
  {
    "name": "Polk County",
    "country": "US",
    "coord": {
      "lon": -82.166496,
      "lat": 35.283451
    }
  },
  {
    "name": "Alviso",
    "country": "US",
    "coord": {
      "lon": -121.975243,
      "lat": 37.426048
    }
  },
  {
    "name": "Stark County",
    "country": "US",
    "coord": {
      "lon": -81.366501,
      "lat": 40.816719
    }
  },
  {
    "name": "Marion County",
    "country": "US",
    "coord": {
      "lon": -122.651199,
      "lat": 44.866508
    }
  },
  {
    "name": "Warren County",
    "country": "US",
    "coord": {
      "lon": -87.2939,
      "lat": 40.288368
    }
  },
  {
    "name": "Pico",
    "country": "US",
    "coord": {
      "lon": -118.61203,
      "lat": 34.377499
    }
  },
  {
    "name": "East Bethany",
    "country": "US",
    "coord": {
      "lon": -78.101402,
      "lat": 42.93145
    }
  },
  {
    "name": "Macon",
    "country": "US",
    "coord": {
      "lon": -92.16848,
      "lat": 34.920368
    }
  },
  {
    "name": "Juneau",
    "country": "US",
    "coord": {
      "lon": -88.705101,
      "lat": 43.405548
    }
  },
  {
    "name": "Pinehurst",
    "country": "US",
    "coord": {
      "lon": -91.462662,
      "lat": 44.858292
    }
  },
  {
    "name": "Cherokee",
    "country": "US",
    "coord": {
      "lon": -119.466438,
      "lat": 48.45071
    }
  },
  {
    "name": "Marietta-Alderwood",
    "country": "US",
    "coord": {
      "lon": -122.553688,
      "lat": 48.78965
    }
  },
  {
    "name": "Morgans Point Resort",
    "country": "US",
    "coord": {
      "lon": -97.463341,
      "lat": 31.14823
    }
  },
  {
    "name": "Olcott",
    "country": "US",
    "coord": {
      "lon": -95.170769,
      "lat": 29.59495
    }
  },
  {
    "name": "Sansom Park",
    "country": "US",
    "coord": {
      "lon": -97.403069,
      "lat": 32.805962
    }
  },
  {
    "name": "Spear",
    "country": "US",
    "coord": {
      "lon": -96.336906,
      "lat": 30.601589
    }
  },
  {
    "name": "Malheur County",
    "country": "US",
    "coord": {
      "lon": -117.667671,
      "lat": 43.25016
    }
  },
  {
    "name": "Pendair Heights",
    "country": "US",
    "coord": {
      "lon": -118.84388,
      "lat": 45.687351
    }
  },
  {
    "name": "Payne County",
    "country": "US",
    "coord": {
      "lon": -96.96698,
      "lat": 36.066719
    }
  },
  {
    "name": "Shawnee",
    "country": "US",
    "coord": {
      "lon": -96.925301,
      "lat": 35.32729
    }
  },
  {
    "name": "Lillard Park",
    "country": "US",
    "coord": {
      "lon": -97.594208,
      "lat": 35.428669
    }
  },
  {
    "name": "Summit",
    "country": "US",
    "coord": {
      "lon": -95.422752,
      "lat": 35.665932
    }
  },
  {
    "name": "Tillman County",
    "country": "US",
    "coord": {
      "lon": -98.917023,
      "lat": 34.366749
    }
  },
  {
    "name": "Gene Autry",
    "country": "US",
    "coord": {
      "lon": -97.038071,
      "lat": 34.283699
    }
  },
  {
    "name": "Linworth",
    "country": "US",
    "coord": {
      "lon": -83.049072,
      "lat": 40.090061
    }
  },
  {
    "name": "Schenectady County",
    "country": "US",
    "coord": {
      "lon": -74.082901,
      "lat": 42.833408
    }
  },
  {
    "name": "Rose Creek",
    "country": "US",
    "coord": {
      "lon": -117.895126,
      "lat": 40.8899
    }
  },
  {
    "name": "Fairfield",
    "country": "US",
    "coord": {
      "lon": -74.304024,
      "lat": 40.882549
    }
  },
  {
    "name": "Cable",
    "country": "US",
    "coord": {
      "lon": -94.07415,
      "lat": 45.511631
    }
  },
  {
    "name": "Bancroft",
    "country": "US",
    "coord": {
      "lon": -93.355209,
      "lat": 43.701618
    }
  },
  {
    "name": "Plainville",
    "country": "US",
    "coord": {
      "lon": -70.960602,
      "lat": 41.682049
    }
  },
  {
    "name": "West Bedford",
    "country": "US",
    "coord": {
      "lon": -71.315613,
      "lat": 42.478149
    }
  },
  {
    "name": "Highview",
    "country": "US",
    "coord": {
      "lon": -93.904114,
      "lat": 42.47192
    }
  },
  {
    "name": "Lakewood Park",
    "country": "US",
    "coord": {
      "lon": -80.374222,
      "lat": 27.48143
    }
  },
  {
    "name": "Jefferson County",
    "country": "US",
    "coord": {
      "lon": -105.267212,
      "lat": 39.63332
    }
  },
  {
    "name": "Village Mobile Home Park",
    "country": "US",
    "coord": {
      "lon": -120.453217,
      "lat": 34.888309
    }
  },
  {
    "name": "Town and Country Mobile Home Park",
    "country": "US",
    "coord": {
      "lon": -116.974747,
      "lat": 32.83255
    }
  },
  {
    "name": "Serra Mesa",
    "country": "US",
    "coord": {
      "lon": -117.138367,
      "lat": 32.80283
    }
  },
  {
    "name": "Lorraine (historical)",
    "country": "US",
    "coord": {
      "lon": -121.650253,
      "lat": 39.469051
    }
  },
  {
    "name": "Parker Junction",
    "country": "US",
    "coord": {
      "lon": -114.596077,
      "lat": 34.770279
    }
  },
  {
    "name": "Michopdo (historical)",
    "country": "US",
    "coord": {
      "lon": -121.853867,
      "lat": 39.731831
    }
  },
  {
    "name": "Desert Royal Mobile Park",
    "country": "US",
    "coord": {
      "lon": -114.61528,
      "lat": 32.66748
    }
  },
  {
    "name": "Morgan County",
    "country": "US",
    "coord": {
      "lon": -86.849998,
      "lat": 34.450089
    }
  },
  {
    "name": "Dothan",
    "country": "US",
    "coord": {
      "lon": -85.390488,
      "lat": 31.22323
    }
  },
  {
    "name": "Northport",
    "country": "US",
    "coord": {
      "lon": -87.577232,
      "lat": 33.229012
    }
  },
  {
    "name": "Opelika",
    "country": "US",
    "coord": {
      "lon": -85.378281,
      "lat": 32.645409
    }
  },
  {
    "name": "Autauga County",
    "country": "US",
    "coord": {
      "lon": -86.649979,
      "lat": 32.53347
    }
  },
  {
    "name": "Dallas County",
    "country": "US",
    "coord": {
      "lon": -87.083321,
      "lat": 32.333469
    }
  },
  {
    "name": "Troy",
    "country": "US",
    "coord": {
      "lon": -85.969948,
      "lat": 31.808769
    }
  },
  {
    "name": "Blytheville",
    "country": "US",
    "coord": {
      "lon": -89.918983,
      "lat": 35.927299
    }
  },
  {
    "name": "Lonoke County",
    "country": "US",
    "coord": {
      "lon": -91.883469,
      "lat": 34.766762
    }
  },
  {
    "name": "Faulkner County",
    "country": "US",
    "coord": {
      "lon": -92.333488,
      "lat": 35.166752
    }
  },
  {
    "name": "El Dorado",
    "country": "US",
    "coord": {
      "lon": -92.666267,
      "lat": 33.20763
    }
  },
  {
    "name": "Saint Francis County",
    "country": "US",
    "coord": {
      "lon": -90.766777,
      "lat": 35.016762
    }
  },
  {
    "name": "Jonesboro",
    "country": "US",
    "coord": {
      "lon": -90.704277,
      "lat": 35.8423
    }
  },
  {
    "name": "Paragould",
    "country": "US",
    "coord": {
      "lon": -90.49733,
      "lat": 36.058399
    }
  },
  {
    "name": "Pine Bluff",
    "country": "US",
    "coord": {
      "lon": -92.003197,
      "lat": 34.228432
    }
  },
  {
    "name": "Pope County",
    "country": "US",
    "coord": {
      "lon": -93.050171,
      "lat": 35.450081
    }
  },
  {
    "name": "Russellville",
    "country": "US",
    "coord": {
      "lon": -93.133789,
      "lat": 35.278419
    }
  },
  {
    "name": "Searcy",
    "country": "US",
    "coord": {
      "lon": -91.736252,
      "lat": 35.250641
    }
  },
  {
    "name": "Texarkana",
    "country": "US",
    "coord": {
      "lon": -94.037689,
      "lat": 33.441792
    }
  },
  {
    "name": "Crawford County",
    "country": "US",
    "coord": {
      "lon": -94.233543,
      "lat": 35.58342
    }
  },
  {
    "name": "Van Buren",
    "country": "US",
    "coord": {
      "lon": -94.348267,
      "lat": 35.43676
    }
  },
  {
    "name": "District of Columbia",
    "country": "US",
    "coord": {
      "lon": -77.000252,
      "lat": 38.917061
    }
  },
  {
    "name": "Pasco County",
    "country": "US",
    "coord": {
      "lon": -82.416481,
      "lat": 28.29195
    }
  },
  {
    "name": "Belle Glade",
    "country": "US",
    "coord": {
      "lon": -80.667557,
      "lat": 26.684509
    }
  },
  {
    "name": "Osceola County",
    "country": "US",
    "coord": {
      "lon": -81.124229,
      "lat": 28.04196
    }
  },
  {
    "name": "Pinellas County",
    "country": "US",
    "coord": {
      "lon": -82.70816,
      "lat": 27.89613
    }
  },
  {
    "name": "Volusia County",
    "country": "US",
    "coord": {
      "lon": -81.208122,
      "lat": 29.08359
    }
  },
  {
    "name": "Estero",
    "country": "US",
    "coord": {
      "lon": -81.806747,
      "lat": 26.438141
    }
  },
  {
    "name": "Indian River County",
    "country": "US",
    "coord": {
      "lon": -80.583107,
      "lat": 27.687811
    }
  },
  {
    "name": "Fort Myers",
    "country": "US",
    "coord": {
      "lon": -81.840591,
      "lat": 26.621679
    }
  },
  {
    "name": "Golden Gate",
    "country": "US",
    "coord": {
      "lon": -81.695091,
      "lat": 26.18787
    }
  },
  {
    "name": "Immokalee",
    "country": "US",
    "coord": {
      "lon": -81.417297,
      "lat": 26.41869
    }
  },
  {
    "name": "Key West",
    "country": "US",
    "coord": {
      "lon": -81.782593,
      "lat": 24.5557
    }
  },
  {
    "name": "Leesburg",
    "country": "US",
    "coord": {
      "lon": -81.877861,
      "lat": 28.81082
    }
  },
  {
    "name": "Lehigh Acres",
    "country": "US",
    "coord": {
      "lon": -81.624802,
      "lat": 26.625351
    }
  },
  {
    "name": "Naples",
    "country": "US",
    "coord": {
      "lon": -81.794807,
      "lat": 26.14204
    }
  },
  {
    "name": "New Smyrna Beach",
    "country": "US",
    "coord": {
      "lon": -80.927002,
      "lat": 29.02582
    }
  },
  {
    "name": "Ormond Beach",
    "country": "US",
    "coord": {
      "lon": -81.055893,
      "lat": 29.28581
    }
  },
  {
    "name": "Palm Coast",
    "country": "US",
    "coord": {
      "lon": -81.20784,
      "lat": 29.58497
    }
  },
  {
    "name": "Port Orange",
    "country": "US",
    "coord": {
      "lon": -80.995613,
      "lat": 29.138321
    }
  },
  {
    "name": "San Carlos Park",
    "country": "US",
    "coord": {
      "lon": -81.801468,
      "lat": 26.4673
    }
  },
  {
    "name": "The Villages",
    "country": "US",
    "coord": {
      "lon": -81.959938,
      "lat": 28.93408
    }
  },
  {
    "name": "Americus",
    "country": "US",
    "coord": {
      "lon": -84.232689,
      "lat": 32.072392
    }
  },
  {
    "name": "Clarke County",
    "country": "US",
    "coord": {
      "lon": -83.383209,
      "lat": 33.950119
    }
  },
  {
    "name": "Richmond County",
    "country": "US",
    "coord": {
      "lon": -82.099838,
      "lat": 33.36681
    }
  },
  {
    "name": "Augusta",
    "country": "US",
    "coord": {
      "lon": -81.974838,
      "lat": 33.47097
    }
  },
  {
    "name": "Brunswick",
    "country": "US",
    "coord": {
      "lon": -81.491493,
      "lat": 31.14995
    }
  },
  {
    "name": "Gordon County",
    "country": "US",
    "coord": {
      "lon": -84.866608,
      "lat": 34.50037
    }
  },
  {
    "name": "Cherokee County",
    "country": "US",
    "coord": {
      "lon": -84.449928,
      "lat": 34.266762
    }
  },
  {
    "name": "Carroll County",
    "country": "US",
    "coord": {
      "lon": -85.049942,
      "lat": 33.583439
    }
  },
  {
    "name": "Bartow County",
    "country": "US",
    "coord": {
      "lon": -84.849937,
      "lat": 34.25037
    }
  },
  {
    "name": "Muscogee County",
    "country": "US",
    "coord": {
      "lon": -84.8666,
      "lat": 32.500702
    }
  },
  {
    "name": "Rockdale County",
    "country": "US",
    "coord": {
      "lon": -84.016579,
      "lat": 33.650108
    }
  },
  {
    "name": "Douglas County",
    "country": "US",
    "coord": {
      "lon": -84.749939,
      "lat": 33.700111
    }
  },
  {
    "name": "Laurens County",
    "country": "US",
    "coord": {
      "lon": -82.916527,
      "lat": 32.450169
    }
  },
  {
    "name": "Dublin",
    "country": "US",
    "coord": {
      "lon": -82.903748,
      "lat": 32.54044
    }
  },
  {
    "name": "Gwinnett County",
    "country": "US",
    "coord": {
      "lon": -84.049911,
      "lat": 33.9501
    }
  },
  {
    "name": "Columbia County",
    "country": "US",
    "coord": {
      "lon": -82.250397,
      "lat": 33.55014
    }
  },
  {
    "name": "Fayette County",
    "country": "US",
    "coord": {
      "lon": -84.483261,
      "lat": 33.40012
    }
  },
  {
    "name": "Spalding County",
    "country": "US",
    "coord": {
      "lon": -84.283257,
      "lat": 33.266781
    }
  },
  {
    "name": "Hinesville",
    "country": "US",
    "coord": {
      "lon": -81.595947,
      "lat": 31.84688
    }
  },
  {
    "name": "Camden County",
    "country": "US",
    "coord": {
      "lon": -81.666489,
      "lat": 30.95023
    }
  },
  {
    "name": "Kingsland",
    "country": "US",
    "coord": {
      "lon": -81.689827,
      "lat": 30.799959
    }
  },
  {
    "name": "La Grange",
    "country": "US",
    "coord": {
      "lon": -85.031326,
      "lat": 33.039291
    }
  },
  {
    "name": "Macon",
    "country": "US",
    "coord": {
      "lon": -83.632401,
      "lat": 32.840691
    }
  },
  {
    "name": "Baldwin County",
    "country": "US",
    "coord": {
      "lon": -83.149872,
      "lat": 33.066811
    }
  },
  {
    "name": "Milledgeville",
    "country": "US",
    "coord": {
      "lon": -83.232101,
      "lat": 33.080139
    }
  },
  {
    "name": "Coweta County",
    "country": "US",
    "coord": {
      "lon": -84.766602,
      "lat": 33.38345
    }
  },
  {
    "name": "Pooler",
    "country": "US",
    "coord": {
      "lon": -81.247063,
      "lat": 32.115479
    }
  },
  {
    "name": "Rome",
    "country": "US",
    "coord": {
      "lon": -85.164673,
      "lat": 34.257038
    }
  },
  {
    "name": "Saint Marys",
    "country": "US",
    "coord": {
      "lon": -81.546494,
      "lat": 30.730511
    }
  },
  {
    "name": "Statesboro",
    "country": "US",
    "coord": {
      "lon": -81.783173,
      "lat": 32.448792
    }
  },
  {
    "name": "Thomas County",
    "country": "US",
    "coord": {
      "lon": -83.866562,
      "lat": 30.95019
    }
  },
  {
    "name": "Thomasville",
    "country": "US",
    "coord": {
      "lon": -83.978783,
      "lat": 30.83658
    }
  },
  {
    "name": "Tifton",
    "country": "US",
    "coord": {
      "lon": -83.508499,
      "lat": 31.45046
    }
  },
  {
    "name": "Valdosta",
    "country": "US",
    "coord": {
      "lon": -83.278488,
      "lat": 30.832701
    }
  },
  {
    "name": "Wilmington Island",
    "country": "US",
    "coord": {
      "lon": -80.973717,
      "lat": 32.003551
    }
  },
  {
    "name": "Quincy",
    "country": "US",
    "coord": {
      "lon": -91.409866,
      "lat": 39.9356
    }
  },